the_geom,cartodb_id,affiliation,founded,karl_id,name_zh_py,name_zh,name_bo,name_bo_wy,rid,long,lat
0101000020E61000000AD7A3703D4A54409999999999193F40,37,DrukpaKagyu,1450.0,542521200:64,qugu si,曲古寺,ཆོས་སྐུ་དགོན,chos sku dgon,G2254,81.16,31.1
0101000020E61000008C2D0439288359409391B3B0A7FD3F40,687,Sakya,1755.0,513229206:64,Bu ya er si,不亚尔寺,བྱར་དགོན,byar dgon,G1KR114,102.04933,31.99084
0101000020E610000080B3942C27875940CA9C2E8B89014240,1035,,,,,,ཁ་སྒང་ཨོ་བསོ་དགོན,kha sgang o bso dgon,G458,102.111766,36.01201
0101000020E6100000333333333363564094C6681D55553F40,1137,Kagyu,,542428215:481,Gaqiong si,古穷寺,,,G1KR1749,89.55,31.33333
,1156,Geluk,1803.0,na:623022115,shamao si,沙冒寺,ས་དམར་དགོན,sa dmar dgon,G4859,,
0101000020E6100000CCCCCCCCCCEC5840D39FFD4811D13B40,1233,Kagyu,1615.0,533421100:23,Baiji si,孜夏寺,,,G1KR779,99.7,27.81667
0101000020E610000058CA32C4B1BA5A4091D5AD9E93F64740,1506,,1778.0,,,,ཏ་ཁུ་རེ་དགོན་ཆེན།,ta khu re dgon chen/,G1979,106.9171,47.92638
0101000020E6100000A6052FFA0A965940F8FC304278504240,1581,Geluk,1631.0,632123205:99,longgou si,龙沟寺,འབྲུག་ལུང་དགོན,'brug lung dgon,G1PD96080,102.34442,36.62867
0101000020E610000091B41B7DCC625840560DC2DCEEB13D40,1990,Bon,?,542128211:134,lawu si,拉物寺,,,G1KR1288,97.543731,29.695051
0101000020E6100000B20C71AC8B0B5740C998BB96901F3D40,2089,Kadampa,1150.0,542226100:542226102,dongga qude si,东嘎曲德寺,མདོ་མཁར་ཆོས་སྡེ,mdo mkhar chos sde,G1KR1461,92.1804,29.1233
0101000020E6100000D8648D7A8888564007D3307C44C43F40,2476,Kagyu,,542428208:480,Ziri si,孜日寺,,,G1KR1745,90.13333,31.76667
0101000020E61000004963B48EAA3A5940FFFFFFFFFF7F3C40,2545,Geluk,1850.0,513422220:21,Duji Erche,,,,G1KR768,100.91666,28.5
0101000020E61000003333333333D35840F92CCF83BB7B3F40,2692,Bon,,513331207:352,kare si,卡热寺,ཁ་རག་དགོན,kha rag dgon,G3830,99.3,31.48333
0101000020E61000003233333333F3584007D3307C44843B40,268,,1528.0,533421204:27,Kangsi si,康司寺,,,G1KR785,99.8,27.51667
0101000020E61000000B98C0ADBBBB58409F6CCA15DE1D3C40,280,Nyingma,,533422202:3,Benggong si,崩贡寺,,,G1KR798,98.93333,28.11667
0101000020E610000065666666663659406D3997E2AA2A3C40,922,Geluk,,513422200:2,Dianzha Erche,,,,G1KR759,100.85,28.16667
0101000020E61000004963B48EAABA56400000000000403F40,1130,Geluk,,542428204:483,Zhajun si,扎君寺,,,G1KR1743,90.91666,31.25
0101000020E6100000E31934F44FB75440A2E8818FC1263D40,1219,Bon,?,,,,,,G2CN11142,82.864255,29.151391
0101000020E610000080812040862656407A1A3048FA543B40,1511,,,,long de si,隆德寺,,,G1PD110071,88.601944,27.331944
0101000020E61000003333333333D353400000000000004040,1759,Sakya,1450.0,542522201:37,,域寺,ཡུལ་དགོན་པ,yul dgon pa,G1KR1801,79.3,32
0101000020E6100000F5673F5244345740A06CCA15DEDD3C40,1807,Kagyu,,542627200:556,Senmu si,森木寺,,,G1KR1901,92.81667,28.86667
0101000020E610000032333333339357406566666666A63F40,1914,Nyingma,,542427209:452,Nimalin si,尼玛林寺,,,G1KR1740,94.3,31.65
0101000020E6100000D8648D7A88485840D29FFD4811913F40,2093,Geluk,,542121206:12,gentang si,跟塘寺,,,G1KR995,97.13333,31.56667
0101000020E6100000289B7285779758402C6002B7EEAE3E40,2301,Kagyu,,542123202:305,Nu si,奴寺,,,G1KR1091,98.36667,30.68333
0101000020E610000048C49448A2BD59403E05C078061D4240,2402,,,632122208:77,,,,,G1KR2154,102.96303,36.22676
0101000020E6100000CFDA6D179AA759400E2DB29DEFCF4140,2643,Geluk,1591.0,632128200:259,duoshize si,多什则寺,མདོ་རྩེ་སྒར,mdo rtse sgar,G1PD96294,102.61878,35.6245
0101000020E61000003DCBF3E0EE4E59409F6CCA15DE1D3C40,1,Geluk,,513422209:9,?,,ཡུ་བི་རི་ཁྲོད,yu bi ri khrod,G1KR763,101.23333,28.11667
0101000020E6100000A6272CF180C65940F1BA7EC16E6C4140,2,Nyingma,,623022207:623022125,kangmuche si,康木车寺,མཁར་མོ་ཆེ་དགོན་པ,mkhar mo che dgon pa,G4833,103.10162,34.84713
0101000020E61000008E01D9EBDD4D5940609335EA21223C40,3,Geluk,1604.0,513422209:7,Kangwu si,康坞寺,བདེ་བ་ཅན་བསོད་ནམས་དར་རྒྱས་གླིང,bde ba can bsod nams dar rgyas gling,G1KR764,101.21667,28.13333
0101000020E61000004863B48EAA2A59409999999999D93C40,4,Geluk,,513422224:18,Kurong,库绒寺,,,G1KR773,100.66666,28.85
0101000020E61000006566666666365940C6F99B5088483C40,5,Geluk,1731.0,513422222:3,Exi Erche,,,,G1KR770,100.85,28.28333
0101000020E61000003ECBF3E0EEEE58409A99999999D93B40,6,Geluk,1667.0,533421100:34,Dafo si,大佛寺,,,G1KR783,99.73333,27.85
0101000020E6100000D8648D7A88D85840D39FFD4811113C40,283,Kagyu,,533422205:5,,云仙寺,,,G1KR800,99.38333,28.06667
0101000020E61000004963B48EAADA5640C5F99B5088883F40,1652,Geluk,,542421212:416,,乃聂寺,,,G1KR1662,91.41666,31.53333
0101000020E6100000F4673F5244E456409A99999999D93F40,1695,Geluk,,542425204:461,,乃木寺,,,G1KR1706,91.56667,31.85
0101000020E610000072FE2614220257408369183E22224040,1696,Geluk,,542425205:462,Bairi si,白日寺,,,G1KR1707,92.03333,32.26667
0101000020E6100000CDCCCCCCCCDC56403333333333134040,1697,Geluk,,542425208:463,Duoma si,多玛寺,,,G1KR1708,91.45,32.15
0101000020E6100000CDCCCCCCCCDC56403333333333134040,1698,Geluk,,542425208:464,Zongbani si,宗巴尼寺,,,G1KR1709,91.45,32.15
0101000020E61000004963B48EAAEA5640FFFFFFFFFF1F4040,1699,Geluk,,542425208:465,Tangka si,唐卡寺,,,G1KR1710,91.66666,32.25
0101000020E61000006666666666F656402C6002B7EEAE3F40,1700,Geluk,,542425209:467,Xueqiong si,雪穷寺,,,G1KR1711,91.85,31.68333
0101000020E61000008D01D9EBDDED5640F92CCF83BBFB3F40,1701,Geluk,,542425211:466,Zhuogu si,卓古寺,,,G1KR1712,91.71667,31.98333
0101000020E610000072FE261422C25640CCCCCCCCCCCC3F40,1702,Kagyu,,542425216:468,,穷宗那确寺,,,G1KR1713,91.03333,31.8
0101000020E61000000B98C0ADBB1B5640C5F99B5088883F40,1703,Nyingma,,542426200:511,Sebu si,色布寺,,,G1KR1714,88.43333,31.53333
0101000020E61000008E01D9EBDD2D56406C3997E2AAEA3E40,1704,Nyingma,,542426201:515,Kongde si,空地寺,,,G1KR1715,88.71667,30.91667
0101000020E61000008E01D9EBDD2D56406C3997E2AAEA3E40,1705,Geluk,,542426201:516,Shenzhamani si,申扎麻尼寺,,,G1KR1716,88.71667,30.91667
0101000020E610000000000000004056406666666666663F40,1706,Nyingma,,542426202:517,Kalong si,卡龙寺,,,G1KR1717,89,31.4
0101000020E6100000B79C4B715545564006D3307C44043F40,1707,Kagyu,,542426203:510,Dongre si,东热寺,,,G1KR1718,89.08334,31.01667
0101000020E6100000B79C4B7155455640F82CCF83BBBB3E40,1708,Kagyu,,542426204:512,Xiawa si,夏瓦寺,,,G1KR1719,89.08334,30.73333
0101000020E6100000B79C4B7155455640F82CCF83BBBB3E40,1709,Kagyu,,542426204:513,Lucang si,鲁仓寺,,,G1KR1720,89.08334,30.73333
0101000020E61000009999999999295640FFFFFFFFFF7F3E40,1711,Geluk,,542426205:518,Qiangge si,强格寺,,,G1KR1722,88.65,30.5
0101000020E610000072FE261422725740609335EA21E23F40,1712,Nyingma,,542427100:443,Gaji si,嘎加寺,,,G1KR1723,93.78333,31.88333
0101000020E610000072FE261422725740609335EA21E23F40,1713,Geluk,,542427100:445,Ribengni si,日崩寺,,,G1KR1725,93.78333,31.88333
0101000020E610000072FE261422725740609335EA21E23F40,1714,Nyingma,,542427100:446,Jiawariani si,加瓦仁阿寺,,,G1KR1726,93.78333,31.88333
0101000020E6100000B79C4B7155B5574006D3307C44843F40,1715,Kagyu,,542427201:458,,苏夏木寺,,,G1KR1727,94.83334,31.51667
0101000020E6100000B79C4B7155B5574006D3307C44843F40,1716,Geluk,,542427201:459,Junba si,军巴寺,,,G1KR1728,94.83334,31.51667
0101000020E6100000B79C4B7155B5574006D3307C44843F40,1717,Kagyu,,542427201:460,,扎西烱寺,,,G1KR1729,94.83334,31.51667
0101000020E61000009A99999999995740F92CCF83BB7B3F40,1718,Geluk,,542427202:453,Jiangda si,江达寺,,,G1KR1730,94.4,31.48333
0101000020E61000009A99999999995740F92CCF83BB7B3F40,1719,Geluk,,542427202:454,,东宗寺,,,G1KR1731,94.4,31.48333
0101000020E61000004963B48EAAAA5740F92CCF83BB7B3F40,1720,Kagyu,,542427203:449,,邦纳寺,,,G1KR1733,94.66666,31.48333
0101000020E61000009A99999999A95740D29FFD4811913F40,1721,Kagyu,,542427203:457,Bangji si,帮吉寺,,,G1KR1734,94.65,31.56667
0101000020E6100000279B7285777757402C6002B7EEAE3F40,1722,Nyingma,,542427206:447,Ga'e si,嘎俄寺,,,G1KR1735,93.86667,31.68333
0101000020E6100000333333333383574006D3307C44843F40,1723,Geluk,,542427207:455,,夏查寺,,,G1KR1736,94.05,31.51667
0101000020E6100000333333333383574006D3307C44843F40,1724,Geluk,,542427207:456,Chida si,珍达寺,,,G1KR1737,94.05,31.51667
0101000020E610000032333333339357406566666666A63F40,1725,Geluk,,542427209:450,Qiongke si,琼扩寺,,,G1KR1738,94.3,31.65
0101000020E610000032333333339357406566666666A63F40,1726,Geluk,,542427209:451,Gong si,贡欧寺,,,G1KR1739,94.3,31.65
0101000020E6100000A5315A4755A35940F44F70B1A24E4240,1727,Geluk,1777.0,632123208:120,pingtang jingfang,平坦静房,ཕེན་ཐན་མཚམས་ཁང,phen than mtshams khang,G1KR2203,102.55208,36.61434
0101000020E610000072FE2614228256409A99999999593F40,1728,Geluk,,542428200:482,Dengga si,登嘎寺,,,G1KR1741,90.03333,31.35
0101000020E6100000959F54FB7493564003F566D47C2D3F40,1729,Bon # Bon,1716.0,542428201:479,puba si,普巴寺,,,G1KR1742,90.304015,31.177686
0101000020E610000085EB51B81E855940CDCCCCCCCC4C4240,1730,,,632126203:150,maquan lakang,妈圈拉康,མ་ཆོན་ལྷ་ཁང,ma chon lha khang,G1KR2223,102.08,36.6
0101000020E61000004963B48EAABA56400000000000403F40,1731,Kagyu,,542428204:484,Zhagarichu si,扎嘎日处寺,,,G1KR1744,90.91666,31.25
0101000020E6100000B81E85EB518859409A99999999594240,1732,,,632126206:148,Langjia si,浪家寺,ལན་ཇ་གེ་ཨེར་ལྷ་ཁང,lan ja ge er lha khang,G1KR2231,102.13,36.7
0101000020E6100000B79C4B715575564092C6681D55953E40,1733,Kagyu,,542428210:485,Dongduo si,东多寺,,,G1KR1746,89.83334,30.58333
0101000020E610000051B81E85EB71594000C63368E89B4140,1734,Nyingma,1985.0,632323205:634,,麦秀俄莽寺,དམེ་ཤུལ་སྔགས་ཁང,dme shul sngags khang,G1KR2469,101.78,35.21803
0101000020E6100000D7A3703D0A8759403D0AD7A3703D4140,1736,Geluk,1924.0,632324203:638,dacan si,达参寺,མདའ་ཚན་དགོན,mda' tshan dgon,G1KR2480,102.11,34.48
0101000020E610000000000000009056402D6002B7EE6E3E40,1737,Nyingma,,542428216:486,Guoqiong si,果穷寺,,,G1KR1750,90.25,30.43333
0101000020E6100000A2EC2DE57C8257401EC3633F8BED3F40,1738,Bon,1847.0,542429200:471,bacang si,巴仓寺,སྤ་ཚང་དགོན,spa tshang dgon,G1KR1751,94.038873,31.927906
0101000020E610000070EEAF1EF7905740CB660E492DE43F40,1739,Bon,1853.0,542429200:476,bula si,布拉寺,,,G1KR1752,94.265083,31.891316
0101000020E6100000EF0390DAC4A35940F0BF95ECD8484140,1740,Geluk,1839.0,623026203:623026103,xicang xinsi,西仓新寺,ཤིས་ཚང་སྒར་གསར,shis tshang sgar gsar,G1KR2034,102.55889,34.56912
0101000020E6100000A56ABB09BE8B574022FDF675E0084040,1741,Bon,1715.0,542429203:470,longka si,龙卡寺,,,G1KR1754,94.183474,32.06935
0101000020E61000000AD7A3703D5A5940A4703D0AD7034240,1742,Geluk,1368.0,632523201:307,dafo si,大佛寺,མི་ཉག་མགོན་ཁང,mi nyag mgon khang,G1KR2549,101.41,36.03
0101000020E610000040A20914B19F5740DC24068195CF3F40,1743,Bon,14uu,542429207:473,chongchang si,冲昌寺,,,G1KR1756,94.495183,31.810875
0101000020E61000003A4030478F57594002B7EEE6A95E4240,1744,Geluk,,630123201:298,lashashang jingfang,拉沙上静房,ཟི་ནའི་ལ་སར་རི་ཁྲོད,zi na'i la sar ri khrod,G1KR2114,101.36812,36.73956
0101000020E61000002F3201BF4670574094C0E61C3C0D4040,1745,Bon,1864.0,542429211:472,puna si,普那寺,,,G1KR1758,93.754318,32.103397
0101000020E6100000ECB60BCD75B45940475A2A6F472C4240,1746,Geluk,1413.0,632122100:80,,享堂寺,ཧྲིན་ཐང་ཟི,hrin thang zi,G1KR2130,102.81969,36.34593
0101000020E6100000F29A577556AD544003ECA35357123D40,1221,Bon,2001.0,,,,,,G2CN11147,82.708402,29.071645
0101000020E6100000E36F7B82C4065740F88C446804373D40,1435,,,,,,སླེ་ལུང་དགོན,sle lung dgon,G184,92.105744,29.214911
0101000020E61000003ECBF3E0EE8E584006D3307C44043F40,2294,Sakya,,542123201:298,,唐夏寺,,,G1KR1084,98.23333,31.01667
0101000020E6100000279B728577075840F92CCF83BBBB3D40,403,Rime,640.0,542625100:539,quzong si,曲宗寺,,,G1KR1881,96.11667,29.73333
0101000020E6100000D8648D7A88E85640D39FFD4811D13E40,1653,Kagyu,,542421215:409,Barong si,巴荣寺,,,G1KR1663,91.63333,30.81667
0101000020E610000052B81E85EBF153400FB9196EC0573F40,18,,1050.0,542522204:41,mangnang si,芒囊寺,མ་ནམ་དགོན,ma nam dgon,G2220,79.78,31.34278
0101000020E6100000977329AE2ACD5940DB8AFD65F76C4140,19,Geluk,1583.0,623022207:623022116,baishiya si,白石崖寺,ཨ་འཁོར་དགོན,a 'khor dgon,G4860,103.20573,34.8513
0101000020E6100000436E861BF0F95340722EC55565873F40,20,,1050.0,542522100:40,bidongbo si,毕东波寺,བེ་སྡོང་པོ་དགོན,be sdong po dgon,G2225,79.90528,31.52889
0101000020E6100000361FD7868ABD56407429AE2AFB363D40,21,Kagyu,11uu,542223100:542223114,xiong zhixing si,雄直兴寺,གཞུང་སྤྲེའུ་ཞིང་།,gzhung spre'u zhing /,G4202,90.96158,29.21477
0101000020E6100000BB44F5D6C0605940E04A766C047E4240,22,Geluk,1500.0,630121203:7,numuqi si,奴木齐寺,ནོམ་ཅི་དགོན,nom ci dgon,G4470,101.51177,36.98451
0101000020E610000098A3C7EF6DA259407A7077D66E1B3F40,23,Geluk,1853.0,513227209:76,jiesi si,结斯寺,བྱེ་སྨད་དགོན,bye smad dgon,G1KR52,102.53796,31.10716
0101000020E61000009B8F6B43C59C594024D1CB28963B3F40,24,Geluk,1791.0,513227211:74,mupo si,木坡寺,མི་ཕམ་དགོན,mi pham dgon,G1KR53,102.44954,31.23276
0101000020E61000003333333333D35840F92CCF83BB3B3B40,25,Kagyu,1732.0,533423200:17,lanjing si,兰经寺,བཀྲ་ཤིས་རབ་བརྟན་གླིང་།,bkra shis rab brtan gling /,G1KR810,99.3,27.23333
0101000020E61000006666666666E65340CCCCCCCCCCCC3F40,26,Sakya,1450.0,542522200:38,jiaxi si,喜西寺,ཤེས་ཤེད་དགོན,shes shed dgon,G2242,79.6,31.8
0101000020E6100000B5A1629CBF8F5940D4B2B5BE48C83E40,27,Geluk,1945.0,513227217:72,dawa si,大哇寺　,ཏ་ཝ་དགོན,ta wa dgon,G1KR57,102.24607,30.78236
0101000020E6100000B79C4B7155555840F82CCF83BBBB3E40,1090,Geluk,,542126101:51,Nuozha si,诺扎寺,,,G1KR1200,97.33334,30.73333
0101000020E610000072FE261422725840F92CCF83BBBB3D40,1972,Nyingma,,542128100:130,Nigu si,尼姑寺,,,G1KR1270,97.78333,29.73333
0101000020E610000010AFEB17ECC05940A18499B67F054040,28,Geluk,,513228100:149,Tuo sa gong pei si,托撒公配寺,མཐོ་ས་གོང་འཕེལ་དགོན,mtho sa gong 'phel dgon,G1KR58,103.01441,32.04296
0101000020E610000085EB51B81EE553403233333333733F40,29,Geluk,1450.0,542522100:33,duoxiang si,多香寺,དོ་ཤངས་དགོན,do shangs dgon,G2247,79.58,31.45
0101000020E61000003D0AD7A3704D5440703D0AD7A3303E40,30,,966 # 1050,542521100:48,kejia si,科加寺,འཁོར་ཆགས་དགོན,'khor chags dgon,G2248,81.21,30.19
0101000020E61000004A5E9D6340BA5940D3F6AFAC34994140,31,Geluk,1659.0,623027204:623027130,manlong si,曼龙寺,སྨན་ལུང་དགོན,sman lung dgon,G4699,102.91018,35.19692
0101000020E6100000FFFFFFFFFF2F56402D6002B7EE2E3D40,32,Kadampa,1153.0,542301204:542306,natang si,纳唐寺,,,G225,88.75,29.18333
0101000020E61000005B8FC2F5285C54408FC2F5285C8F3E40,33,DrukpaKagyu,1400.0,542521201:55,chuguo si,楚果寺,ཁྲུས་སྒོ་དགོན,khrus sgo dgon,G2250,81.44,30.56
0101000020E61000006666666666665440703D0AD7A3B03E40,34,DrigungKagyu,1450.0,542521201:61,sewalong si,色瓦龙寺,སེ་བ་ལུང་དགོན,se ba lung dgon,G2251,81.6,30.69
0101000020E61000002DB29DEFA7B459408C101E6D1C0D4040,35,,,513228200:154,(在 宗教史要 中 - 只有沙石多寺位于沙石多乡.  此寺见本表131.,,ཀླུ་སྒམ་བཀྲ་ཤིས་དགོན,klu sgam bkra shis dgon,G1KR62,102.82275,32.10243
0101000020E610000082CAF8F719C7594000C63368E8074040,36,Nyingma,,513228201:153,(在 宗教史要 中 - 位于红岩乡的寺庙中无宁玛巴寺院.,？,དབོ་སྒྲི་དགོན,dbo sgri dgon,G1KR63,103.11096,32.06178
0101000020E6100000CDCCCCCCCC4C544009D7A3703D0A3F40,38,DrukpaKagyu,1450.0,542521200:65,zuchupu si,祖楚普寺,རྫུ་འཕྲུལ་ཕུག་དགོན,rdzu 'phrul phug dgon,G2255,81.2,31.04
0101000020E6100000026553AEF0CA59404594F6065F084040,39,Nyingma,1607.0,513228202:155,mawo si,麻窝寺,ཀོ་སྦ་དགོན,ko sba dgon,G1KR64,103.17094,32.0654
0101000020E6100000EC51B81E854B544014AE47E17A143F40,40,DrigungKagyu,1350.0,542521200:63,jiangzha si,江扎寺,རྒྱང་གྲགས་དགོན,rgyang grags dgon,G2256,81.18,31.08
0101000020E6100000DAE6C6F484C5564022BE13B35E8C3D40,41,Kadampa,1050.0,540125101:540125103,sangpu si,桑普寺,གསང་ཕུ་ནེའུ་ཐོག་དགོན་པ,gsang phu ne'u thog dgon pa,G226,91.08624,29.54832
0101000020E6100000A818E76F42C959406F8104C58F154040,42,Geluk,1392.0,513228212:150,Luo er si,洛若寺,ཀླུ་བཟོད་དགོན,klu bzod dgon,G1KR67,103.14468,32.16845
0101000020E6100000CDCCCCCCCCEC53400000000000404040,43,DrukpaKagyu,1050 # 16uu,542523203:70,zhaxigang si,扎西岗寺,བཀྲ་ཤིས་སྒང་དགོན,bkra shis sgang dgon,G2261,79.7,32.5
0101000020E6100000B79C4B71557559406D3997E2AAEA3C40,819,Kagyu,,513324201:39,Ergou,,,,G1KR314,101.83334,28.91667
0101000020E61000000BB43BA418AF5540228C9FC6BD993C40,1177,,,,,,རྩིབ་རི་དགོན,rtsib ri dgon,G712,86.735879,28.600552
0101000020E61000003ECBF3E0EE6E56406C3997E2AA6A3F40,1735,Nyingma,,542428214:478,Samu si,萨姆寺,,,G1KR1748,89.73333,31.41667
0101000020E61000000F5EBBB4E1685640CFD38041D2973B40,7,,,,,,རྟ་མགོ་དགོན,rta mgo dgon,G218,89.638776,27.593052
0101000020E61000008466D7BD15BA54402DCA6C90496E3D40,148,Bon,11uu,,,,,,G2CN11140,82.907577,29.43081
0101000020E6100000C68A1A4CC3C65640AB09A2EE03A83D40,8,Geluk,1650.0,540102006:540101124,gongdelin si,功德林寺,ཀུན་བདེ་གླིང,kun bde gling,G219,91.10567,29.65631
0101000020E61000003333333333F353403D0AD7A3707D3F40,9,Rime,996.0,542522100:1,tuolin si,托林寺,མཐོ་ལྡིང་དགོན་པ,mtho lding dgon pa,G2194,79.8,31.49
0101000020E6100000A696ADF545C856404603780B24A83D40,10,TsalpaKagyu,1350.0,540102005:540101121,cemenlin si,策门林寺,ཚེ་སྨོན་གླིང,tshe smon gling,G220,91.12927,29.6568
0101000020E61000003DCBF3E0EE4E594093C6681D55953C40,11,Geluk,,513422227:14,gangraojin si,岗绕颈寺,,,G1KR776,101.23333,28.58333
0101000020E6100000289B728577C75540609335EA21223C40,12,Sakya,1385.0,542324208:542324104,xiege-er qude si,协格尔曲德寺,ཤེལ་དཀར་ཆོས་སྡེ,shel dkar chos sde,G221,87.11667,28.13333
0101000020E61000000B98C0ADBBBB58409F6CCA15DE1D3C40,13,Nyingma,,533422202:2,Tuoweizhu si,拖位主寺,,,G1KR797,98.93333,28.11667
0101000020E61000000B98C0ADBBEB58409F6CCA15DEDD3B40,14,Geluk,1681.0,533421100:37,gadan songzanlin si,噶丹松赞林寺,དགའ་ལྡན་སྲོང་བཙན་གླིང,dga' ldan srong btsan gling,G1KR784,99.68333,27.86667
0101000020E61000007077D66EBB2858400E45813E91BB4040,76,Sakya,1269.0,632721207:36,longqing si,龙青寺,གླིང་ཆེན་དགོན་པ,gling chen dgon pa,G1KR2730,96.63644,33.46537
0101000020E61000006666666666E653406666666666E63F40,15,Sakya,1450.0,542522200:32,rebujialin si,热布加林寺,རབ་རྒྱས་གླིང་དགོན,rab rgyas gling dgon,G2216,79.6,31.9
0101000020E6100000A4703D0AD707544091D5AD9E931E3F40,16,Geluk,1450.0,542522204:43,dongpo si,东坡寺,གདོང་པོ་དགོན,gdong po dgon,G2217,80.1225,31.11944
0101000020E6100000C959D8D30EFB534008C4EBFA053B3F40,17,Geluk,1450.0,542522204:42,daba si,达巴寺,མདའ་བ་དགོན,mda' ba dgon,G2218,79.92278,31.23056
0101000020E610000052431B800D295440C03FA54A94213F40,44,,,542523202:69,guru jiamu si,故如甲木寺,གུ་རུ་གྱམ་དགོན,gu ru gyam dgon,G2262,80.641449,31.131169
0101000020E610000077D1579066CC594045F0BF95EC144040,45,Bon,,513228214:158,,在 宗教史要 中无与此寺相应名字的位于知木林乡的寺庙,རི་དདྷི་དགོན,ri ddhi dgon,G1KR68,103.19376,32.16347
0101000020E610000000000000003054402085EB51B81E3F40,46,DrukpaKagyu,1350.0,542523202:68,zhida buri si,芝达布日寺,པྲེ་ཏ་པུ་རི་དགོན,pre ta pu ri dgon,G2263,80.75,31.12
0101000020E61000005C8FC2F5283C54407B14AE47E1FA3E40,47,Geluk,1650.0,542522204:67,dunju si,顿久寺,རྡོ་ཆུ་དགོན,rdo chu dgon,G2265,80.94,30.98
0101000020E6100000295C8FC2F5E8534014AE47E17AB44040,48,Geluk,,542524100:72,lunzhu quding si,伦珠曲丁寺,ལྷུན་གྲུབ་ཆོས་སྡིངས་དགོན,lhun grub chos sdings dgon,G2266,79.64,33.41
0101000020E6100000A7B393C1518C594043FAEDEBC0E93F40,49,Nyingma,,513229100:15,canmula si,参木拉寺,ཚང་གནས་དགོན,tshang gnas dgon,G1KR73,102.19249,31.9131
0101000020E61000003D0AD7A3709D54403D0AD7A3703D4040,50,KarmaKagyu,1850.0,542525202:79,zhaxi qulin si,扎西曲林寺,བཀྲ་ཤིས་ཆོས་གླིང་དགོན,bkra shis chos gling dgon,G2270,82.46,32.48
0101000020E6100000AD47E17A144E5440E17A14AE47E13F40,51,KarmaKagyu,1805.0,542525203:76,zhajia si,扎加寺,བྲག་སྐྱ་དགོན,brag skya dgon,G2271,81.22,31.88
0101000020E6100000AE47E17A14EE544085EB51B81E054040,52,,1350.0,542526200:80,mami si,麻米寺,མ་མིག་དགོན,ma mig dgon,G2275,83.72,32.04
0101000020E61000008FC2F5285CFF54407B14AE47E11A4040,53,KarmaKagyu,1850.0,542526100:81,zhajiang si,扎江寺,བྲག་གྱམ་དགོན,brag gyam dgon,G2276,83.99,32.21
0101000020E610000000000000007058406E3997E2AA6A3D40,54,Geluk,,542128209:138,Wutang si,吾唐寺,,,G1KR1278,97.75,29.41667
0101000020E610000059DAA9B9DC465340CB14731074224140,55,Geluk,1831.0,,,,རི་རྫོང་དགོན་པ,ri rdzong dgon pa,G231,77.107222,34.269167
0101000020E6100000A6D0798D5DC85640735E6397A8DE3D40,56,Sakya,1436.0,540121205:540121107,nalanzha si,那烂扎寺,འཕན་པོ་ན་ལེནྡྲ,'phan po na len+dra,G233,91.13071,29.86976
0101000020E6100000289B7285777759409999999999193F40,57,,,513323200:16,qiongshan si,邛山寺,ཁྱུང་ལུང་དགོན,khyung lung dgon,G4074,101.86667,31.1
0101000020E6100000E674594C6CB859400D1AFA27B8944140,58,Geluk,,623027207:623027137,tangga'ang zhaxi si,唐尕昂扎西寺,ཐང་དཀར་ནང་བཀྲ་ཤིས་དགོན,thang dkar nang bkra shis dgon,G4825,102.88161,35.16187
0101000020E6100000D8648D7A889858401D03B2D7BB5B4040,59,Geluk,1730.0,513332212:398,taxu si,它须寺,ཐར་ཤུལ་དགོན,thar shul dgon,G3952,98.38333,32.71667
0101000020E6100000A2B437F8C2385940B7B41A12F7F84140,60,Geluk,1916.0,632525205:376,chana si,查那寺,བྱ་མདོ་ཚ་རྔ་དགོན,bya mdo tsha rnga dgon,G1KR2612,100.8869,35.94504
0101000020E610000026DF6C7363245740FA449E245D233D40,61,Kagyu,1550.0,542229101:542229101,dabo xiezhulin si,达波谢珠林寺,དྭགས་པོ་བཤད་སྒྲུབ་གླིང,dwags po bshad sgrub gling,G2357,92.56857,29.13814
0101000020E61000009A99999999B958409F6CCA15DE9D3E40,301,Nyingma,,542123210:333,Langcuo si,郎措寺,,,G1KR1124,98.9,30.61667
0101000020E6100000DEB06D51662558408CA19C68576D4040,62,DrukpaKagyu,1668.0,632721203:13,zhouba si,周巴寺,བྲུག་པ་དགོན་པ,brug pa dgon pa,G1KR2711,96.58437,32.85423
0101000020E61000004F5DF92CCF1F584007CE1951DA734040,63,DrukpaKagyu,1847.0,632721203:11,zaikong gai si,栽空改寺,མཛེས་ཁང་དགེ་དགོན་པ,mdzes khang dge dgon pa,G1KR2712,96.49702,32.9051
0101000020E610000061BEBC00FBD65640F8669B1BD3AB3D40,64,Kagyu,1250.0,540126100:540126105,sangang si,桑昂寺,གསང་སྔགས་མཁར,gsang sngags mkhar,G2362,91.35907,29.67119
0101000020E6100000703D0AD7A3D05840FFFFFFFFFF7F4140,65,Nyingma,1946.0,632621205:480,kuake si,夸科寺,མཁའ་སྐོར་དགོན་པ,mkha' skor dgon pa,G1KR2622,99.26,35
0101000020E61000008AC8B08A3728584070EB6E9EEA544040,66,KarmaKagyu,1837.0,632721204:196,resang si,热桑寺,རེ་བསངས་ཟི,re bsangs zi,G1KR2716,96.62839,32.66341
0101000020E6100000C2340C1F11C157403A0664AF77F73E40,67,Kagyu,,542133203:230,Dawa si,达瓦寺,,,G1KR1370,95.01667,30.96667
0101000020E6100000A4703D0AD70359400000000000804040,68,Nyingma,1840.0,632622200:520,ka'ang si,卡昂寺,མཁར་ནང་དགོན་པ,mkhar nang dgon pa,G1KR2624,100.06,33
0101000020E61000002BA4FCA4DA2558406E3480B740564040,69,Nyingma,1900.0,632721204:198,dong - gai si,东改寺,ཏོང་ཉིན་ཀེད་ཟི,tong nyin ked zi,G1KR2717,96.59147,32.67385
0101000020E61000001F85EB51B81E59400AD7A3703D8A4040,70,Nyingma,1954.0,632622203:517,bangyi si,邦义寺,སྤང་ཡུས་དགོན་པ,spang yus dgon pa,G1KR2630,100.48,33.08
0101000020E610000066666666662659400AD7A3703D8A4040,71,Nyingma,1830.0,632622204:515,enda si,恩达寺,ཝེ་མདའ་དགོན་པ,we mda' dgon pa,G1KR2631,100.6,33.08
0101000020E61000003D0AD7A3702D59409A99999999794040,72,Nyingma,1777.0,632622205:513,,班那合寺,པན་ནག་དགོན་པ,pan nag dgon pa,G1KR2634,100.71,32.95
0101000020E6100000F3E505D8473158403B1405FA44AE4040,73,Sakya,1150.0,632721207:39,burang sajia si,布让萨迦寺,པུ་རོང་ས་སྐྱ་དགོན་པ,pu rong sa skya dgon pa,G1KR2724,96.77001,33.36148
0101000020E61000003233333333335940E17A14AE47614040,74,Nyingma,1907.0,632622207:509,huade si,华德寺,དཔལ་སྡེ་དགོན་པ,dpal sde dgon pa,G1KR2641,100.8,32.76
0101000020E6100000FB3A70CE8826584021EA3E00A9B54040,75,KarmaKagyu,1890.0,632721207:197,zuoqing nigu si,左青尼姑寺,རྫོང་ཆེན་ཇོ་གླིང,rdzong chen jo gling,G1KR2726,96.6021,33.41922
0101000020E6100000B6A1629CBF055940A1BE654E97F94040,77,Nyingma,1836.0,632623201:482,dongji duoka si,东吉多卡寺,སྡོང་རྒྱུད་རྡོ་ཁ་དགོན,sdong rgyud rdo kha dgon,G1KR2650,100.08982,33.94993
0101000020E6100000EC51B81E850B59403333333333134140,78,Jonang,1812.0,632623205:487,qiayilong si,恰依隆寺,ཁྲ་ཝག་ལུང་དགོན་པ,khra wag lung dgon pa,G1KR2652,100.18,34.15
0101000020E6100000E9263108AC285840D027F224E9C24040,79,KarmaKagyu,,632721207:206,gayong si,嘎永寺,ཀ་ཡོའུ་ཡི,ka yo'u yi,G1KR2736,96.6355,33.52274
0101000020E6100000CDCCCCCCCC1C59403333333333134140,80,Nyingma,1821.0,632623206:488,qiaqu si,恰曲寺,ཆ་ཆུ་དགོན་པ,cha chu dgon pa,G1KR2654,100.45,34.15
0101000020E61000008BA6B393C1E757409FC893A46B624040,81,KarmaKagyu,1930.0,632722201:95,baizhi si,白智寺,བེ་སྤྲེལ་དགོན་པ,be sprel dgon pa,G1KR2742,95.62119,32.76891
0101000020E61000009A99999999495940A4703D0AD7434240,82,Geluk,1648.0,630123202:300,dongke'er si,东科尔寺,སྟོང་འཁོར་དགོན་པ,stong 'khor dgon pa,G239,101.15,36.53
0101000020E6100000174850FC18D3574058569A94823E4040,83,BaromKagyu,1698.0,632722204:102,riwa bama si,日哇多玛寺,རུ་བ་བར་མ,ru ba bar ma,G1KR2748,95.2984,32.48836
0101000020E6100000EB51B81E85DB58403C0AD7A370DD4040,84,Nyingma,1925.0,632624205:493,gangba si,岗巴寺,སྒང་པ་དགོན་པ,sgang pa dgon pa,G1KR2662,99.43,33.73
0101000020E61000003F74417DCBF256407D0569C6A2293D40,85,Geluk,1450.0,542221101:542221109,Riwo Choling,日乌曲林,རི་བོ་ཆོས་གླིང་།,ri bo chos gling /,G4458,91.79367,29.16264
0101000020E610000097CADB114ED1574025E99AC9373F4040,86,BaromKagyu,1490.0,632722204:100,riwa duoma si,日哇巴玛寺,རུ་བ་སྟོད་མ,ru ba stod ma,G1KR2749,95.27039,32.49389
0101000020E61000003ECBF3E0EEEE5840D39FFD4811514040,87,Nyingma,1853.0,513333200:441,puwu si,普吾寺,ཕུའུ་དགོན,phu'u dgon,G3990,99.73333,32.63334
0101000020E6100000EC51B81E851B5940A4703D0AD7A34040,88,Nyingma,1930.0,632624206:499,budong si,布冬寺,བུ་དོན་དགོན་པ,bu don dgon pa,G1KR2665,100.43,33.28
0101000020E61000000C59DDEA39D357405B7C0A80F1404040,89,BaromKagyu,1200.0,632722204:99,bangnang si,邦囊寺,བག་ནག་དགོན,bag nag dgon,G1KR2750,95.30041,32.50737
0101000020E610000000000000006059403333333333B34040,90,Geluk,1930.0,632625200:534,ningyou si,宁友寺,ཉིན་ཡུས་དགོན་པ,nyin yus dgon pa,G1KR2668,101.5,33.4
0101000020E61000002592E86514D3574015E3FC4D284C4040,91,DrigungKagyu,1825.0,632722204:98,longga si,龙嘎寺,ལུང་དཀར་དགོན,lung dkar dgon,G1KR2752,95.29812,32.59498
0101000020E61000008BFD65F7E4F556408A592F86725A3D40,92,Geluk,1450.0,542221200:542221123,Tashi Dokha,哲西多嘎寺,འོན་གྱི་བཀྲ་ཤིས་རྡོ་ཁ,'on gyi bkra shis rdo kha,G4466,91.8421,29.35331
0101000020E6100000CDCCCCCCCC2C59402D6002B7EEEE3F40,93,Nyingma,1600.0,513333212:439,jiadong si,加东寺,རྒྱའུ་གདོང་དགོན,rgya'u gdong dgon,G3995,100.7,31.93333
0101000020E6100000A4703D0AD72359406666666666A64040,94,Geluk,,632625205:528,juele si,角勒寺,ཇོ་ལག་ཆོས་སྒར,jo lag chos sgar,G1KR2678,100.56,33.3
0101000020E6100000A4703D0AD72359406666666666A64040,95,Nyingma,,632625205:529,wasai si,哇赛寺,སྦྲ་གསར་དགོན,sbra gsar dgon,G1KR2679,100.56,33.3
0101000020E6100000CDCCCCCCCC1D59408BDD3EABCC124040,96,Nyingma,1880.0,,seda wuming foxueyuan,色达五明佛学院,བླ་རུང་སྒར,bla rung sgar,G3997,100.465625,32.146871
0101000020E61000002C4833164D2B5940E7E3DA5031B64040,97,Nyingma,,632625205:532,wenta maqu ga'er si,温塔玛曲噶尔寺,བུབ་ཐ་མ་ཆོས་སྒར,bub tha ma chos sgar,G1KR2680,100.67658,33.42338
0101000020E61000003233333333F358402C6002B7EEEE3C40,98,Geluk,1650/1662,513336100:51,sangpi si,桑皮寺,ཆ་ཕྲེང་བསམ་འཕེལ་གླིང,cha phreng bsam 'phel gling,G3998,99.8,28.93333
0101000020E61000006B956071389157403EEDF0D764954040,99,NedoKagyu,1840.0,632722207:103,gasa si,嘎洒寺,སྒ་གསར་དགོན་པ,sga gsar dgon pa,G1KR2763,94.26907,33.16714
0101000020E6100000D7A3703D0AB75840AD47E17A148E4140,100,Nyingma,,632626203:479,cuorou zhangfang si,措柔帐房寺,མཚོ་རིག་ཆོས་སྒར,mtsho rig chos sgar,G1KR2684,98.86,35.11
0101000020E6100000E97DE36BCF485840FB5C6DC5FEE64040,101,Nyingma,1924.0,632723201:69,a-nie si,阿涅寺,ཨ་ཉེ་དགོན་པ,a nye dgon pa,G1KR2767,97.13766,33.80465
0101000020E610000082C0CAA145C25840DF675C38108E4140,102,Nyingma,1958.0,632626203:481,laze chagong zhangfang si,拉泽恰贡帐房寺,ལྷ་རྩེ་ཆབ་གོང་ཆོས་སྒར,lha rtse chab gong chos sgar,G1KR2685,99.0355,35.10987
0101000020E61000000C1F1153229F56408711C2A38D433D40,103,Sakya,1250.0,540124201:540124112,jicai si,吉彩寺,སྐྱིད་ཚལ་དགོན་པ,skyid tshal dgon pa,G2416,90.48647,29.26388
0101000020E61000006666666666E6554092C6681D55153D40,104,Kadampa,1064.0,542326200:542326107,sekaqiong si,司卡琼寺,སེ་མཁར་ཆུང,se mkhar chung,G1KR1569,87.6,29.08333
0101000020E6100000FEF15EB53253584002D9EBDD1FB74040,105,Geluk,1867.0,632723202:64,kana si,卡纳寺,ཁ་ན་དགོན་པ,kha na dgon pa,G1KR2772,97.29997,33.43066
0101000020E6100000AF08FEB7922F5840352905DD5EE24040,106,,1398.0,632723203:71,saihang si,赛航寺,ཟེར་དཀར་དགོན,zer dkar dgon,G1KR2773,96.74333,33.76852
0101000020E6100000DC989EB0C44358404AEF1B5F7B824040,107,Sakya,1715.0,632721100:193,,嘉那嘛呢石经城,རྒྱ་ནག་མ་ནི་ཁང,rgya nag ma ni khang,G1KR2691,97.05888,33.01939
0101000020E6100000CD237F30F03A5840807D74EACA934040,108,DrigungKagyu,1295.0,632721200:23,rangniang si,让娘寺,རག་ཉག་དགོན,rag nyag dgon,G1KR2692,96.92091,33.15463
0101000020E610000038B5334C6DBC544014799274CD2C3D40,149,,,,,,,,G2CN11141,82.944171,29.17501
0101000020E6100000554D10751F425840520ABABDA4994040,109,Sakya,1300.0,632723206:20,tanglong si,唐隆寺,སྒ་ཐར་ལམ་དགོན,sga thar lam dgon,G1KR2783,97.03317,33.20034
0101000020E6100000452FA3586EA75640D478E92631683D40,110,Nyingma,1350.0,540124204:540124110,Tarpaling,塔巴林寺,ཐར་པ་གླིང,thar pa gling,G2424,90.61611,29.407
0101000020E61000006C5B94D92033584013B875374F994040,111,Sakya,1150.0,632721200:22,sangzhu si,桑主寺,བསམ་འགྲུབ་དགོན་པ,bsam 'grub dgon pa,G1KR2694,96.79888,33.19773
0101000020E6100000F0DC7BB8E4AC564068CBB914576D3D40,112,Geluk,1650.0,540124100:540124109,jiangqulin si,降曲林寺,བྱང་ཆུབ་གླིང་དགོན,byang chub gling dgon,G2426,90.70146,29.42711
0101000020E610000034F44F70B14258409F5912A0A6A24040,113,Sakya,1200.0,632723206:28,zongguo si,宗郭寺,རྫོང་མགོ་དགོན་པ,rdzong mgo dgon pa,G1KR2784,97.04208,33.27071
0101000020E6100000A913D044D84458401FBFB7E9CF724040,114,Rime,730.0,632721201:10,dari rulai fotang,大日如来佛堂,རྣམ་པར་སྣང་མཛད་མཆོད་ཁང,rnam par snang mdzad mchod khang,G1KR2703,97.0757,32.89697
0101000020E6100000A835CD3B4E3F5840B9FC87F4DB274040,115,Sakya # Sakya,1267 # 1253,632721202:18,qulang duojie si,曲朗多杰寺,ཆོས་གླིང་རྡོ་རྗེ་དགོན,chos gling rdo rje dgon,G1KR2704,96.98915,32.3114
0101000020E6100000B79C4B7155255640619335EA21623D40,116,Sakya,1500.0,542328202:542328112,rigui qude si,日贵曲德寺,རི་གུད་ཆོས་སྡེ,ri gud chos sde,G1KR1601,88.58334,29.38333
0101000020E6100000A64412BD8C405840AC90F2936AAF4040,117,Sakya,,632723207:212,gangcha si,岗察寺,རྐང་ཚ་ཟི,rkang tsha zi,G1KR2791,97.00859,33.37044
0101000020E61000000725CCB4FD4358406B82A8FB00B04040,118,Sakya,1268.0,632723207:46,gazang si,尕藏寺,སྐལ་བཟང་དཔལ་འབྱོར་དགོན,skal bzang dpal 'byor dgon,G1KR2792,97.06236,33.37503
0101000020E610000005A8A9656B625640E57B462234723D40,119,Bon,1393 # 1404/1405,542322206:542322108,meiri si,梅日寺,སྨན་རི་དགོན,sman ri dgon,G4,89.537805,29.446108
0101000020E61000007919C5724B7359404ED1915CFE0B4240,120,Nyingma,1725.0,632322450:613,lari si,拉日寺,ལྷ་རི་བསམ་གཏན་གླིང,lha ri bsam gtan gling,G4485,101.80148,36.0937
0101000020E6100000085A8121AB8559403E22A64412614240,121,,,632126206:153,zhaci si,扎慈寺,བཀྲ་ཚེ་དགོན,bkra tshe dgon,G1KR2237,102.08857,36.75837
0101000020E6100000CDCCCCCCCC0C5640CDCCCCCCCC4C3D40,122,Bodong,1049.0,542326202:542326109,bodong e si,博东俄寺,བོ་དོང་ཨེ་དགོན་པ,bo dong e dgon pa,G244,88.2,29.3
0101000020E6100000CCCCCCCCCC7C5940E07A14AE47614240,123,,,632126207:155,pairier la kang,派日尔拉康,པཻ་རི་ཨེར་ལྷ་ཁང,pai ri er lha khang,G1KR2238,101.95,36.76
0101000020E6100000C0A8A44E4047584056D4601A86AF4040,124,Sakya,1296.0,632723350:49,dongcheng si,东程寺,གདོར་སྤྲས་དགོན,gdor spras dgon,G1KR2796,97.1133,33.37128
0101000020E6100000CCCCCCCCCC7C5940E07A14AE47614240,125,,,632126207:156,simian nama lakang xiasi,斯面那麻拉康下寺,སི་མིན་ན་མ་ལྷ་ཁང,si min na ma lha khang,G1KR2239,101.95,36.76
0101000020E61000002CEC6987BFE657400E84640113F44040,126,DrigungKagyu,1500.0,632724350:109,gangcha si,岗察寺,,,G1KR2797,95.60544,33.90683
0101000020E61000004863B48EAA6A564093C6681D55953C40,127,Geluk,1820.0,542331100:542331110,Serding,色丁寺,གྱང་རོང་སེར་སྡིང,gyang rong ser sding,G1KR1616,89.66666,28.58333
0101000020E6100000543541D47D8659402AA913D044644240,128,,,632126208:152,hualin ga'erwa lakang,桦林噶尔哇拉康,ཧུ་ལིན་གར་བ་ལྷ་ཁང,hu lin gar ba lha khang,G1KR2240,102.10143,36.78335
0101000020E61000006ADE718A8EBE5640E02879758E693D40,129,Nyingma,750.0,540124202:540124108,samazha si,萨玛扎寺,ཟངས་གཡང་བྲག་དགོན,zangs g.yang brag dgon,G2444,90.97745,29.41233
0101000020E6100000B81E85EB51885940EA73B515FB634240,130,,,632126208:147,shijian huzhu fotang,世间互助佛堂,ཇུ་ཆུ་གོང་པོ་ལྷ་ཁང,ju chu gong po lha khang,G1KR2241,102.13,36.7811
0101000020E6100000D8648D7A8868564006D3307C44C43C40,131,Geluk,1800.0,542331201:542331102,zangzha si,藏札寺,གཙང་སྦྲ་དགོན,gtsang sbra dgon,G1KR1618,89.63333,28.76667
0101000020E610000052B81E85EB815940CDCCCCCCCC6C4240,132,,1050.0,632126210:154,guangfu si,广福寺,ཀོང་ཧྥུ་ཟི,kong h+phu zi,G1KR2246,102.03,36.85
,133,Bon,1842.0,,murong si,木荣寺,,,G2CN11135,,
0101000020E61000003333333333E35840609335EA21223D40,134,Nyingma,,513336209:52,rixi si,日西寺,རི་ཤུལ་དགོན,ri shul dgon,G4005,99.55,29.13333
0101000020E61000009A99999999295940C6F99B5088483C40,135,Geluk,,513422205:5,Xialuo Gun,夏洛寺,,,G1KR761,100.65,28.28333
0101000020E610000079C2120F28735940642310AFEB1B4240,136,Nyingma,1949.0,632127202:234,jiaojia si,角加寺,གྱོད་རྒྱ་དགོན་པ,gyod rgya dgon pa,G1KR2270,101.79932,36.21813
0101000020E610000052499D802672594076A6D0798D1D4240,137,Nyingma,1766.0,632127202:235,diangang si,电岗寺,ཏན་ཁང་དགོན་པ,tan khang dgon pa,G1KR2271,101.7836,36.23088
0101000020E61000007EC68503216F594066834C3272224240,138,Geluk,1400.0,632127202:204,sekang si,色康寺,གསེར་ཐང་དགོན་པ,gser thang dgon pa,G1KR2273,101.73639,36.26911
0101000020E61000003333333333C358409A99999999193E40,139,Nyingma,,513335200:78,langgen si,郎根寺,གནམ་བསྐོས་དགོན,gnam bskos dgon,G4009,99.05,30.1
0101000020E6100000B71E85EB5178594001F6D1A92B1F4240,140,Geluk,1596.0,632127203:159,caimaoji si,才毛吉寺,མཚར་མོ་ཆེའི་རི་ཁྲོད,mtshar mo che'i ri khrod,G1KR2276,101.88,36.24352
0101000020E61000000B98C0ADBBEB55406666666666263D40,141,Sakya,1250.0,542326101:542326113,laza si,拉孜寺,དགའ་ལྡན་འོག་མིན་གླིང,dga' ldan 'og min gling,G246,87.68333,29.15
0101000020E61000001F85EB51B87E594050C24CDBBF124240,142,Nyingma,1860.0,632127205:236,lagongma si,拉公麻寺,ལ་གོང་མ་དོང་པ,la gong ma dong pa,G1KR2279,101.98,36.14648
0101000020E61000007380608E1E055840BEC1172653354040,143,KarmaKagyu,1952.0,632725204:170,gama dajie si,噶玛达杰寺,ཀརྨ་དར་རྒྱས་དགོན་པ,karma dar rgyas dgon pa,G1KR2821,96.07999,32.4166
0101000020E6100000344B02D4D4025840D79E5912A0364040,144,BaromKagyu,1300.0,632725204:175,biri laqiong si,毕日拉穹寺,བེ་རུ་བླ་ཆུང་དགོན་པ,be ru bla chung dgon pa,G1KR2822,96.04424,32.42676
0101000020E6100000DD408177F2BF544039CB2C42B1E93C40,145,Bon,15uu,,,,,,G2CN11137,82.999174,28.912861
0101000020E610000011312592E8CC54404A395FECBD203D40,146,Bon,?,,,,,,G2CN11138,83.201695,29.127898
0101000020E61000002028B7ED7BDA544041A6B5696C173D40,147,Bon,11uu,,,,,,G2CN11139,83.413814,29.091498
0101000020E6100000683F5244860558400586AC6EF5EC3F40,1162,Nyingma,,632725206:145,reya si,热牙寺,རྭ་ཡ་དགོན,rwa ya dgon,G2684,96.08632,31.92562
0101000020E6100000D7A3703D0A875940A4703D0AD7034240,150,Geluk,1886.0,632127212:178,kagang si,卡岗寺,མཁར་སྒང་དགོན་པ,mkhar sgang dgon pa,G1KR2295,102.11,36.03
0101000020E61000003ECBF3E0EECE5540CDCCCCCCCC4C3D40,151,Sakya,1225.0,542327100:542327104,angren qude si,昂仁曲德寺,ངམ་རིང་ཆོས་སྡེ,ngam ring chos sde,G247,87.23333,29.3
0101000020E6100000B6BE4868CB9B5940BC79AA436E0E4240,152,Nyingma,1790.0,632127214:223,shang shidacang si,上石达仓寺,ཧྲང་སྟང་ཚང་ཟི,hrang stang tshang zi,G1KR2303,102.43429,36.11274
0101000020E610000000C63368E89759405726FC523F0F4240,153,Nyingma,1500.0,632127214:224,dajiayan si,大加沿寺,ཏ་ཅ་ཡན་ཟི,ta ca yan zi,G1KR2304,102.37356,36.11912
0101000020E6100000BFD18E1B7EA65440399160AA991D3D40,154,,,,,,,,G2CN11144,82.601447,29.115626
0101000020E61000000000000000D05840C5F99B5088483E40,155,KarmaKagyu,1225.0,513335211:79,pengjilin si,彭吉林寺,སྤུང་རི་དགོན,spung ri dgon,G4015,99.25,30.28333
0101000020E610000000C63368E89759405726FC523F0F4240,156,Nyingma,1796.0,632127214:225,danchuang si,旦庄寺,ཏན་ཀྲོང་ཟི,tan krong zi,G1KR2305,102.37356,36.11912
0101000020E6100000B262B83A00B2544020B75F3E590D3D40,157,,,,,,,,G2CN11145,82.781264,29.052143
0101000020E61000009EE6E44526C4544084D89942E77D3C40,158,Bon,1960.0,,,,,,G2CN11146,83.064836,28.49181
0101000020E61000006666666666965940DA5031CEDF144240,159,Nyingma,1322.0,632127214:226,,香塔寺,ཞང་ཐ་ཟི,zhang tha zi,G1KR2307,102.35,36.16308
0101000020E61000001EB935E9B67D5740CA129D6516353F40,1680,Bon,1440.0,542423209:435,shenzha si,申扎寺,,,G1KR1690,93.964289,31.207373
0101000020E610000018213CDA380858409E2E8B89CDDF3F40,160,Nyingma,1822.0,632725206:147,,邦囊寺,བག་ནག་དགོན་པ,bag nag dgon pa,G1KR2844,96.12847,31.87423
0101000020E61000006EFAB31F290058407C7901F6D1E13F40,161,Nyingma,1893.0,632725206:158,gaijia si,改加寺,གེ་ཅག་དགེ་དགོན་པ,ge cag dge dgon pa,G1KR2845,96.00251,31.88211
0101000020E6100000CDCCCCCCCC9C59400F2384471B0F4240,162,Nyingma,1891.0,632127215:219,adai si,阿代寺,ཨ་ཐར་ཟི,a thar zi,G1KR2315,102.45,36.11802
0101000020E6100000CDCCCCCCCC9C594015C616821C004240,163,Nyingma,1730.0,632127216:221,,下恰藏寺,ཞ་ཆ་ཚང,zha cha tshang,G1KR2316,102.45,36.00087
0101000020E6100000CCCCCCCCCCEC584092C6681D55D53B40,164,Kagyu,1660.0,533421100:32,Dabao si,大宝寺,,,G1KR781,99.7,27.83333
0101000020E61000006666666666C6584007D3307C44043E40,165,Geluk,1820.0,513335100:76,rideng si,日登寺,འབའ་རི་སྟོད་དགོན,'ba' ri stod dgon,G4022,99.1,30.01667
0101000020E61000008351499D80A05940EF8FF7AA95054240,166,Nyingma,1290.0,632127216:211,anguanqunwa si,安关群哇寺,ཨ་མགོན་ཆུང་བ་ཟི,a mgon chung ba zi,G1KR2319,102.50785,36.04363
0101000020E61000000000000000B05940EACF7EA488484240,167,,760.0,622326205:9,,嘎达寺,བྲག་དགོན,brag dgon,G249,102.75,36.56667
0101000020E610000022FE614B8F4953405B77F35487D83E40,168,Bon,1969.0,,meiri si,梅日寺,,,G2CN11149,77.149371,30.845815
0101000020E6100000C0E95DBC1F7C534055D80C7041623E40,169,Bon,1974.0,,,,,,G2CN11150,77.939437,30.383811
0101000020E61000008E01D9EBDDCD58402C6002B7EE2E3E40,170,Geluk,,513335210:86,moduo si,莫多寺,མོ་ཏོག་དགོན,mo tog dgon,G4024,99.21667,30.18333
0101000020E61000000A98C0ADBBCB58409A99999999193E40,171,DrukpaKagyu,1625.0,513335201:74,sangdeng si,桑登寺,བསམ་གཏན་དགོན,bsam gtan dgon,G4025,99.18333,30.1
0101000020E61000006666666666365840C5F99B5088883F40,172,Kagyu,,542121200:8,rinai si,日乃寺,,,G1KR986,96.85,31.53333
0101000020E610000097C5C4E6E3A859407B14AE47E1FA4140,173,Nyingma,1500.0,632127217:217,weijia laka si,伟加拉卡寺,བིས་ཅ་ལ་ཀ་ཟི,bis ca la ka zi,G1KR2331,102.63891,35.96
0101000020E6100000B79C4B7155D558406D3997E2AAEA3C40,174,Nyingma,1199.0,513338209:117,guding si,固顶寺,གོ་བོ་དགོན,go bo dgon,G4027,99.33334,28.91667
0101000020E61000003DCBF3E0EE4E594093C6681D55953C40,175,Geluk,,513422227:20,Waduo Gun,瓦多衮,,,G1KR777,101.23333,28.58333
0101000020E61000000000000000A059401361C3D32BFD4140,176,Nyingma,1880.0,632127217:209,qiajia si,恰加寺,ཆ་ཀྱ་དགོན,cha kya dgon,G1KR2333,102.5,35.9779
0101000020E61000001F85EB51B89E5940CDCCCCCCCCEC4140,177,Geluk,1731.0,632128100:270,seru lakang,赛如拉康,སེ་རུ་ལྷ་ཁང,se ru lha khang,G1KR2336,102.48,35.85
0101000020E610000099D87C5C1BEA5740D5CF9B8A54084040,178,DrigungKagyu,,632725207:208,,扎西寺,བཀྲ་ཤིས་དགོན་པ,bkra shis dgon pa,G1KR2861,95.65792,32.06508
0101000020E6100000168733BF9AA55940E8263108ACCC4140,179,,1358.0,632128200:271,wumandao si,吾曼道寺,བུའུ་སྨད་དོའུ་ཟི,bu'u smad do'u zi,G1KR2337,102.58757,35.599
0101000020E610000032FE7DC685E557405682C5E1CC0F4040,180,KarmaKagyu,1941.0,632725207:201,waren si,哇仁寺,བ་རིན་ཟི,ba rin zi,G1KR2863,95.58629,32.12344
0101000020E6100000FF78AF5A99AA594021B0726891D14140,181,,1358.0,632128200:272,helongbao si,贺龙堡寺,ཧུའུ་ལུང་པོའུ་ཟི,hu'u lung po'u zi,G1KR2343,102.66561,35.63725
0101000020E6100000E23B31EBC5A659400F5D50DF32D34140,182,Nyingma,1824.0,632128200:267,danma nigu si,旦麻尼姑寺,འདབ་མའི་ཇོ་མོ་དགོན་པ,'dab ma'i jo mo dgon pa,G1KR2344,102.60583,35.64999
0101000020E6100000B79C4B7155D558406D3997E2AAEA3C40,183,Nyingma,1152.0,513338209:118,bingba si,兵巴寺,དཔལ་འབར་དགོན,dpal 'bar dgon,G4030,99.33334,28.91667
0101000020E610000069C6A2E9EC865940713D0AD7A3E44140,184,Geluk,1941.0,632128207:605,cika si,赤卡寺,ཁྲི་ཀ་དགོན་པ,khri ka dgon pa,G1KR2371,102.10821,35.78625
0101000020E610000012A0A696AD935940B936548CF3D34140,185,Geluk,1692.0,632128208:255,gangcha si,岗察寺,ཡ་རྫིའི་རྐང་ཚ་དགོན་པ,ya rdzi'i rkang tsha dgon pa,G1KR2373,102.30747,35.65587
0101000020E6100000B92C26361F7759400AD7A3703DAA4240,186,Geluk,1730.0,632221209:541,jiaduo si,加多寺,རྒྱ་ཏོག་དགོན,rgya tog dgon,G1KR2375,101.86128,37.33
0101000020E61000005A643BDF4F9559404E62105839A44240,187,Nyingma,1202.0,632221212:4,jile si,极乐寺,ཏཱ་བན་དགོན,tA ban dgon,G1KR2378,102.333,37.283
0101000020E61000009A5FCD0182DD56405B7C0A80F1DC3D40,188,TsalpaKagyu,1250.0,540126204:540126112,xue si,雪寺,ཞོགས་དགོན་པ,zhogs dgon pa,G2516,91.46106,29.86306
0101000020E6100000BAED42739D005940AD6EF59CF41E4340,189,Geluk,1943.0,632222200:548,duomi si,郭密寺,སྒོ་མེ་དགོན་པ,sgo me dgon pa,G1KR2380,100.00961,38.24184
0101000020E61000004CC3F01131215940E4ED08A705D74240,190,Geluk,1891.0,632222201:544,garide si,嘎日德寺,དགའ་སྡེ་དགོན་པ,dga' sde dgon pa,G1KR2381,100.51862,37.67986
0101000020E6100000B437F8C264305940F8AA9509BFDC4240,191,Geluk,1777.0,632222201:543,baihu si,百户寺,པེ་ཧུའུ་དགོན,pe hu'u dgon,G1KR2382,100.75615,37.72458
0101000020E6100000B437F8C264B85740A323B9FC875C4140,192,Nyingma,1981.0,632726205:204,qumahe zongjiao huodong dian,曲麻河宗教活动点,ཆུ་དམར་ཚོགས་ར,chu dmar tshogs ra,G1KR2896,94.88115,34.7229
0101000020E6100000DBA2CC0699B25940EE5F5969527A4140,193,Geluk,1683.0,623027208:623027101,zhayou si,扎油寺,ཙ་ཡུས་དགོན,tsa yus dgon,G2521,102.79059,34.95564
0101000020E6100000978BF84ECC5858407B14AE47E19A4240,194,Geluk,,632802201:445,guolimu si,郭里木寺,གོར་མོ་དགོན་པ,gor mo dgon pa,G1KR2898,97.38747,37.21
0101000020E6100000B5A1629CBFC3594020240B98C0794140,195,Geluk,1714.0,623001203:623027102,,,མཛོད་དགེ་སྒར་རྙིང,mdzod dge sgar rnying,G2525,103.05857,34.95119
0101000020E6100000C408E1D1C699594018096D3997B24140,196,Geluk,1662.0,623027202:623027103,,,རི་ངར་བཀྲ་ཤིས་དགེ་འཕེལ་དགོན,ri ngar bkra shis dge 'phel dgon,G2526,102.40276,35.39524
0101000020E61000001F85EB51B82E59408E01D9EBDD6F4240,197,Geluk,1596.0,632223203:562,baifo si,白佛寺,ལ་མོ་སྒར,la mo sgar,G1KR2387,100.73,36.87396
0101000020E610000000000000002059403D0AD7A3709D4240,198,Bon,1927.0,632223205:561,,压秀麻苯教寺,ཡ་ཞོལ་མ་ཟི,ya zhol ma zi,G1KR2388,100.5,37.23
0101000020E61000003B730F09DF725740C347C49448163F40,1681,Bon,1465.0,542423209:436,sangda si,桑达寺,,,G1KR1691,93.794863,31.087045
0101000020E6100000D7A3703D0AF75840E17A14AE47A14240,199,Nyingma,1665.0,632224203:554,shatuo si,沙陀寺,ས་མཐོ་དགའ་ལྡན་དགོན,sa mtho dga' ldan dgon,G1KR2395,99.86,37.26
0101000020E6100000A6B8AAECBBB85940060DFD135C884140,200,Geluk,1750.0,623001200:623027105,kajia jiusi,卡加旧寺,ཁ་གྱའི་སྒར་རྙིང,kha gya'i sgar rnying,G2530,102.88647,35.06531
0101000020E6100000D7A3703D0AF75840E17A14AE47A14240,201,Nyingma,,632224203:560,zhasuha si,扎苏合寺,གྲྭ་སུག་དགོན་པ,grwa sug dgon pa,G1KR2396,99.86,37.26
0101000020E6100000B1DCD26A48E25840FC6F253B36AA4240,202,Nyingma,1988.0,632224204:468,qingzhibu si,青知布寺,ཆིན་ཀྲི་པོའུ་ཟི,chin kri po'u zi,G1KR2399,99.53567,37.32978
0101000020E610000033F9669B1BB55940A9C1340C1F594140,203,Geluk,1750.0,623027210:623027106,meijia si taisang nuo bulin,,རྨེ་རྒྱ་དགོན,rme rgya dgon,G2533,102.82981,34.69626
0101000020E61000007840D9942B285940034356B77AAA4240,204,Geluk,1951.0,632224501:558,sairide si,赛日德寺,གསེར་རྟེའུ་དགོན,gser rte'u dgon,G1KR2400,100.62766,37.33187
0101000020E6100000C0FF56B263AD5940FF5BC98E8D6C4140,205,Geluk,1750.0,623027211:623027121,amuquhu xiuzhengyuan,阿木去乎修证院,ཨ་མཆོག་བོར་ཆུང་རི་ཁྲོད,a mchog bor chung ri khrod,G2534,102.70921,34.84807
0101000020E6100000F54A598638AA5940F792C6681D9D4140,206,Geluk,1800.0,623027203:623027107,shantang aodan si,,མར་ཐང་ཨོབ་བསྟན་དགོན་པ,mar thang ob bstan dgon pa,G2535,102.6597,35.22746
0101000020E6100000C35F9335EABD59402827DA5548794140,207,Geluk,1859.0,623001003:623027108,,,སྣ་བུག་ཆོས་རྫོང་དགོན་པ,sna bug chos rdzong dgon pa,G2537,102.96742,34.94752
0101000020E6100000C1340C1F11615940F82CCF83BB3B3F40,208,Nyingma,1925.0,513323205:7,wudumiao si,伍都妙寺,འོ་དྷི་དགོན,'o dhi dgon,G4046,101.51667,31.23333
0101000020E6100000B81E85EB510859408D976E1283C44240,209,Geluk,1915.0,632224200:549,gangca si,岗察寺,རྐང་ཚ་དགོན་ཆེན,rkang tsha dgon chen,G2539,100.13,37.53525
0101000020E6100000F4673F5244645940D29FFD4811513E40,210,KarmaKagyu,1254.0,513321217:102,zhangka si,丈卡寺,བྲག་མཁར་དགོན,brag mkhar dgon,G3784,101.56667,30.31667
0101000020E61000009A99999999295940C6F99B5088483C40,211,Geluk,,513422205:4,?,,སུ་ལུ་རི་ཁྲོད,su lu ri khrod,G1KR760,100.65,28.28333
0101000020E6100000CD237F30F0C8594008944DB9C2AB3F40,560,Nyingma,1740.0,513222204:159,sang dan si,桑丹寺,,,G2CN10948,103.13966,31.67094
0101000020E610000052B81E85EB815940CA1AF5108DD64140,212,Geluk,1780.0,632321201:570,gashari si,尕沙日寺,རྐ་སར་དགོན།,rka sar dgon/,G1KR2406,102.03,35.67618
0101000020E61000003ECBF3E0EE5E594092C6681D55153C40,213,Geluk,1690.0,513422216:10,Sakaya Gun,萨卡雅寺,,,G1KR767,101.48333,28.08333
0101000020E6100000349D9D0C8E80584047205ED72F0C4240,214,Nyingma,1953.0,632822101:451,longmai si,龙迈寺,ལུང་དམར་དགོན་པ,lung dmar dgon pa,G1KR2910,98.00867,36.09521
0101000020E6100000CDCCCCCCCC8C59406566666666C64140,215,Geluk,1766.0,632321202:582,loure si,娄热寺,ལུག་རྭ་དགོན,lug rwa dgon,G1KR2408,102.2,35.55
0101000020E6100000B79C4B71552559403433333333B33C40,216,Geluk,,513422223:13,Gela Gun,格拉衮,,,G1KR771,100.58334,28.7
0101000020E61000007AF7C77BD58859409548A29751CC4140,217,Geluk,1669.0,632321202:580,shagaxia si,沙尕夏寺,ས་དཀར་ཤར་དབེན་གནས,sa dkar shar dben gnas,G1KR2410,102.13803,35.59624
0101000020E6100000B79C4B71552559403433333333B33C40,218,Geluk,,513422223:17,Gagou Gun,格沟衮,,,G1KR772,100.58334,28.7
0101000020E6100000CDCCCCCCCC8C59402098A3C7EFD14140,219,Geluk,1630.0,632321202:581,xiguan si,西关寺,ཤེལ་དགོན,shel dgon,G1KR2411,102.2,35.64013
0101000020E61000006666666666065940813E912749BB4240,220,Geluk,1925.0,632224200:551,jianihai si,加尼亥寺,རྒྱ་ཉག་དགོན་པ,rgya nyag dgon pa,G2547,100.1,37.46317
0101000020E6100000C9B08A3732FF58405EA27A6B60C34240,221,Geluk,1930.0,632224200:552,kecai si,科才寺,ཁོ་ཚེ་དགོན་པ,kho tshe dgon pa,G2548,99.98744,37.52638
0101000020E6100000999999999979594009D7A3703DAA4140,222,Geluk,1650.0,632321203:596,deqin si,德钦寺,བདེ་ཆེན་བྱམས་པ་གླིང,bde chen byams pa gling,G1KR2412,101.9,35.33
0101000020E6100000D8648D7A883859400000000000C03C40,223,Geluk,,513422225:12,Sisan Gun,,སི་སན་དགོན,si san dgon,G1KR774,100.88333,28.75
0101000020E610000024581CCEFC26584054573ECBF3544040,224,DrigungKagyu,1394.0,632721204:15,longxi si,龙喜寺,ཀླུང་ཤོད་དགོན,klung shod dgon,G2550,96.60918,32.66369
0101000020E610000052B81E85EB81594010E9B7AF03CB4140,225,Geluk,1741.0,632321204:569,guomari si,郭麻日寺,སྒོ་དམར་སྒར,sgo dmar sgar,G1KR2417,102.03,35.58605
0101000020E61000005DF92CCF83255840F3E505D847474040,226,Geluk,1750.0,632721204:17,maohe si,貌合寺,མོ་ཧི་དགེ་དགོན,mo hi dge dgon,G2557,96.58617,32.55688
0101000020E6100000A4703D0AD7835940AE47E17A14CE4140,227,Geluk,1485.0,632321204:576,woke si,卧科寺,ཐོ་ཀྱའི་སྒར,tho kya'i sgar,G1KR2418,102.06,35.61
0101000020E6100000A5A0DB4B1A4158404B1AA37554994040,228,KarmaKagyu,1100.0,632721200:26,gangla si,岗拉寺,འགག་ལ་དགོན,'gag la dgon,G2559,97.01723,33.19789
0101000020E6100000C5E6E3DA503F584040A4DFBE0E944040,229,Geluk,1600.0,632721200:27,bangqun si,邦群寺,འབུམ་ཆུང་དགོན,'bum chung dgon,G2561,96.98931,33.1567
0101000020E6100000289B728577E75740D39FFD4811113E40,1792,DrigungKagyu,11uu,542625101:538,qingduo si,倾多寺,,,G1KR1885,95.61667,30.06667
0101000020E6100000ABCFD556EC7F5940689604A8A9C94140,230,,950.0,632321205:571,dangge yima si,当格乙麻寺,དང་པོའི་གཞི་མ་དགོན,dang po'i gzhi ma dgon,G1KR2420,101.9988,35.57549
0101000020E61000004DDBBFB2D248584019ADA3AA09A24040,231,Geluk,1419.0,632723206:51,labu si,拉布寺,ལབ་དགོན,lab dgon,G2562,97.13786,33.26592
0101000020E6100000D80DDB1665CA584052EDD3F198994240,232,Geluk,,632823201:462,tianping ekang,天棚俄康,ཐེམ་ཕོང་སྔགས་ཁང,them phong sngags khang,G1KR2919,99.16242,37.19998
0101000020E6100000529B38B9DF47584018265305A3A24040,233,Kagyu,,632723206:53,bangbu si,邦布寺,འབྲོམ་བུ་དགོན,'brom bu dgon,G2563,97.12303,33.2706
0101000020E6100000D80DDB1665CA584052EDD3F198994240,234,Geluk,1987.0,632823201:466,shanie lakang,沙涅拉康,ཧྲ་ཉི་ལྷ་ཁང,hra nyi lha khang,G1KR2920,99.16242,37.19998
0101000020E6100000713D0AD7A38059408C9C853DEDCC4140,235,Geluk,1648.0,632321205:574,zhaxiqi si,扎西其寺,གཡའ་མ་བཀྲ་ཤིས་འཁྱིལ,g.ya' ma bkra shis 'khyil,G1KR2422,102.01,35.60099
0101000020E6100000F29881CAF8515840C685032159B44040,236,Geluk,1800.0,632723202:66,xiuma si,休马寺,ཤུལ་མ་དགོན,shul ma dgon,G2565,97.28081,33.40897
0101000020E610000033333333337359406C3997E2AAEA3E40,237,Geluk,1877.0,513323203:28,buke si,布科寺,ཡ་ར་དགོན,ya ra dgon,G4059,101.8,30.91667
0101000020E6100000910A630B41005840AAD4EC8156204040,238,BaromKagyu,1511.0,632725208:146,daimao si,代毛寺,བདེ་མོ་དགོན,bde mo dgon,G2568,96.00397,32.25264
0101000020E610000080D4264EEE0358402254A9D903354040,239,BaromKagyu,1271.0,632725204:174,dejia si,德加寺,དུད་བརྒྱ་དགོན,dud brgya dgon,G2569,96.06142,32.41418
0101000020E61000008E01D9EBDD3D5640C6F99B5088083D40,240,Geluk,1650.0,542301203:542311,tabalin si,塔巴林寺,ཐར་པ་གླིང,thar pa gling,G257,88.96667,29.03333
0101000020E6100000B2D2A414743958403ECBF3E0EE184040,241,Nyingma,1535.0,632725203:183,gading si,嘎丁寺,ཟུར་མང་དགའ་ལྡན་དགོན,zur mang dga' ldan dgon,G2571,96.89771,32.19479
0101000020E6100000C2D84290837E5940703D0AD7A3F04140,282,Sakya,1350.0,632322207:607,awa si,阿哇寺,རྔ་བ་སྒར,rnga ba sgar,G1KR2454,101.97678,35.88
0101000020E6100000713D0AD7A3805940CEA5B8AAECB74140,242,Geluk,1747.0,632321206:590,jianglong gasa-er si,江龙尕萨尔寺,ལྕང་ལུང་སྒར་སར,lcang lung sgar sar,G1KR2428,102.01,35.43691
0101000020E61000004A0C022B87CC57404777103B53A84040,243,Geluk,1662.0,632722206:101,zhaxi lawu si,扎西拉武寺,བཀྲ་ཤིས་ལྷ་ཕུག་དགོན,bkra shis lha phug dgon,G2572,95.19575,33.31504
0101000020E61000001C08C902267E59405C77F35487B84140,244,Nyingma,,632321206:593,jianglong qionggui si,江龙琼贡寺,ལྕང་ལུང་ཁྱུང་དགོན་པ,lcang lung khyung dgon pa,G1KR2429,101.97107,35.44163
0101000020E610000039454772F90F5840DFE00B93A9DE4040,245,Geluk,1448.0,632726200:73,xiari si,夏日寺,ཤ་རུ་དགོན,sha ru dgon,G2574,96.2496,33.73955
0101000020E6100000CCCCCCCCCC7C59402137C30DF8B84140,246,Geluk,1750.0,632321206:589,nuheyi si,奴合仪寺,སྒྲུབ་གནས་བཀྲ་ཤིས་ཆོས་རྫོང,sgrub gnas bkra shis chos rdzong,G1KR2430,101.95,35.44507
0101000020E6100000AEF02E17F10958403E22A64412E54040,247,Geluk,,632726200:75,juedong si,觉东寺,སྒྱོགས་དུང་དགོན,sgyogs dung dgon,G2575,96.15534,33.78962
0101000020E6100000EFACDD76A11958400C71AC8BDBE84040,248,Geluk,1600.0,632726200:74,bagan si,巴干寺,འབའ་དགོན,'ba' dgon,G2576,96.40048,33.8192
0101000020E610000059FAD005F5775940C7681D554DB84140,249,Nyingma,1853.0,632321207:587,yalang si,牙浪寺,ཉ་ལུང་དགོན་པ,nya lung dgon pa,G1KR2431,101.87433,35.43986
0101000020E61000007E00529B38C5564071E6577380B03D40,250,Geluk,1750.0,540102001:540101131,Gonpasar,？,དགོན་པ་གསར་རི་ཁྲོད,dgon pa gsar ri khrod,G1KR818,91.08158,29.68946
0101000020E61000003D0AD7A3707D5940E17A14AE47C14140,251,Nyingma,1720.0,632321207:600,guolaka si,郭拉卡寺,སྒོ་ལ་ཁ་དགོན་པ,sgo la kha dgon pa,G1KR2432,101.96,35.51
0101000020E610000095826E2F695A584033A7CB62625B4040,252,KarmaKagyu,1300.0,632721201:8,,相古寺,ཞང་འགུ་དགོན,zhang 'gu dgon,G2579,97.41267,32.71394
0101000020E61000003C618907948559409ACE4E0647C14140,253,Nyingma,1385.0,632321208:566,wutun shangzhuang si,五屯上庄寺,སེངྒེ་གཤོང་ཡ་མགོ་དགོན་པ,seng+ge gshong ya mgo dgon pa,G1KR2433,102.08716,35.50998
0101000020E610000003560E2DB24958405FD218ADA36A4040,254,DrigungKagyu,1160.0,632721201:9,zuoma bangzha si,卓玛邦扎寺,སྒྲོལ་མ་བྲག་རྩ་དགོན,sgrol ma brag rtsa dgon,G2580,97.1515,32.83312
0101000020E61000004D4A41B7974A5840E23B31EBC52C4040,255,KarmaKagyu,1420.0,632721202:29,lawo si,拉喔寺,གླ་གྲོ་དགོན,gla gro dgon,G2581,97.16551,32.34979
0101000020E6100000EE5F596952425840A228D027F2304040,256,ZurmangKagyu,1424.0,632721202:30,duogong si,多贡寺,རྡོ་དགོན,rdo dgon,G2582,97.03628,32.38239
0101000020E6100000BEA4315A47275840FB743C66A0564040,257,NedoKagyu,1570.0,632721204:21,daiba si,代巴寺,དད་པ་དགོན,dad pa dgon,G2586,96.61373,32.67677
0101000020E61000007D224F92AE2B58407155D97745B84040,258,KarmaKagyu,,632721207:43,laiye laze si,来叶拉则寺,ཀླུ་ཡུལ་ལྷ་རྩེ་དགོན,klu yul lha rtse dgon,G2587,96.68253,33.43962
0101000020E6100000CDCCCCCCCC8C59400000000000C04140,259,Geluk,,632321210:584,guashize si,瓜什则寺,མགར་རྩེ་གྱ་སར་བཤད་གྲྭ,mgar rtse gya sar bshad grwa,G1KR2438,102.2,35.5
0101000020E61000004963B48EAAC856401C2098A3C7EF3D40,260,Kadampa,1150.0,540121202:540121116,naimo si,乃摩寺,སྣེ་མོ་དགོན,sne mo dgon,G4584,91.13541,29.93664
0101000020E6100000888043A8528B59404B598638D6C14140,261,Geluk,1712.0,632321210:577,gedang si,格当寺,སྒེའུ་སྟེང་དགོན,sge'u steng dgon,G1KR2439,102.17692,35.51435
0101000020E61000007B832F4CA62A5840431CEBE236BE4040,262,DrigungKagyu,1291.0,632721207:40,a-zhang si,阿帐寺,ཨ་གྲགས་དགོན,a grags dgon,G2590,96.6664,33.48605
0101000020E6100000CF6BEC12D5295840FFCA4A9352BC4040,263,KarmaKagyu,1591.0,632721207:42,gaba si,嘎巴寺,སྒ་པ་དགོན,sga pa dgon,G2591,96.65363,33.47127
0101000020E6100000DBF97E6ABC2858400473F4F8BDBD4040,264,KarmaKagyu,,632721207:45,gaxiong si,嘎雄寺,སྒ་གཞུང་དགོན,sga gzhung dgon,G2592,96.6365,33.48236
0101000020E6100000713D0AD7A3705940C7BAB88D060C4240,265,Geluk,1924.0,632322201:619,gabu si,尕布寺,རྐ་ཕུག་དགོན,rka phug dgon,G1KR2442,101.76,36.09395
0101000020E6100000D34D6210583F594016A746DE4C274740,266,,1650.0,,,,དགའ་ལྡན་བདེ་ལྡན་གླིང,dga' ldan bde ldan gling,G2KR78,100.98975,46.30703333
0101000020E6100000713D0AD7A3705940713D0AD7A3104240,267,Nyingma,1250.0,632322201:617,nanzong nigu si,南宗尼姑寺,གནམ་རྫོང་ཇོ་མོའི་དགོན,gnam rdzong jo mo'i dgon,G1KR2444,101.76,36.13
0101000020E6100000713D0AD7A3705940713D0AD7A3104240,269,Nyingma,,632322201:618,,南宗扎寺,སེ་རྩ་དགོན་པ,se rtsa dgon pa,G1KR2445,101.76,36.13
0101000020E6100000975643E21E555840E0B4E0455F914040,270,DrigungKagyu,1750.0,632723205:63,bagan si,巴干寺,འབའ་དགོན,'ba' dgon,G2596,97.33001,33.13572
0101000020E61000006CE7FBA9F15658401EF98381E7924040,271,DrigungKagyu,1456.0,632723205:62,gewu si,格乌寺,འགེའུ་དགོན,'ge'u dgon,G2597,97.3585,33.14769
0101000020E61000007A6B60AB04535840456458C51BB54040,272,DrigungKagyu,1652.0,632723202:65,zhujie si,竹节寺,སྒྲུབ་བརྒྱུད་དགོན,sgrub brgyud dgon,G2599,97.29716,33.41491
0101000020E6100000C2340C1F1151594092C6681D55D53B40,431,Geluk,1692.0,513422210:8,liewa gun,,ལེ་ཝ་དགོན,le wa dgon,G1KR765,101.26667,27.83333
0101000020E6100000334B02D4D42E574008C90226704B3C40,273,Nyingma,1150.0,542231201:542231106,sangqing si,桑青寺,ཟངས་ཆེན་དགོན,zangs chen dgon,G26,92.73174,28.29468
0101000020E61000004963B48EAABA5840F92CCF83BB7B3C40,274,Kagyu,,533422100:7,Gadandeqin lin,噶丹德钦林,,,G1KR794,98.91666,28.48333
0101000020E61000002BD9B11188CF56403CC780ECF5EE3D40,275,Kadampa,1150.0,540121201:540121125,naisu si,乃苏寺,སྣེའུ་ཟུར་དགོན,sne'u zur dgon,G4593,91.24268,29.93344
0101000020E610000090149161151F5840A0A696ADF5114040,276,DrukpaKagyu # Nyingma,1923.0,632725200:115,daidong si,代东寺,གཏེར་སྟོན་དགོན,gter ston dgon,G2602,96.48568,32.14031
0101000020E61000004963B48EAADA5840A06CCA15DE9D3B40,277,Kagyu # Kagyu,1662 # 1737,533423206:19,damo si,达摩寺,བསྟན་འཕེལ་གླིང་།,bstan 'phel gling /,G1KR813,99.41666,27.61667
0101000020E6100000E3C281902C1E5840B0FECF61BE204040,278,DrigungKagyu,1791.0,632725350:112,maiqinggai si,买庆改寺,མེར་ཆེན་དགེ་དགོན,mer chen dge dgon,G2604,96.47147,32.25581
0101000020E61000007C0A80F10C7C594011C7BAB88DEE4140,279,Geluk,1620.0,632322207:603,gaka si,噶卡寺,སྒར་ཁ་དགོན,sgar kha dgon,G1KR2453,101.93829,35.8637
0101000020E6100000AB09A2EE031A5840B84082E2C7104040,281,DrukpaKagyu,,632725201:116,juewu si,觉吾寺,སྤྱི་བུབ་དགོན,spyi bub dgon,G2606,96.40649,32.1311
0101000020E6100000E17A14AE47815940DA1B7C6132E94140,284,Nyingma,1341.0,632322208:606,angla saikang si,昂拉赛康寺,སྣང་ར་གསེར་ཁང,snang ra gser khang,G1KR2455,102.02,35.82185
0101000020E6100000349D9D0C8E2458403AAFB14B54234040,285,KarmaKagyu,1511.0,632725350:117,guoqian si,郭欠寺,གོ་ཆེ་དགོན,go che dgon,G2608,96.57117,32.27601
0101000020E6100000289B7285774759405F9335EA21623E40,286,Sakya,1196.0,513325215:492,lai-e si,来俄寺,ལས་སྨོན་དགོན་པ,las smon dgon pa,G4078,101.11667,30.38333
0101000020E61000009A999999999958402D6002B7EE6E3E40,287,Nyingma,,542123205:326,Damo si,达摩寺,,,G1KR1106,98.4,30.43333
0101000020E610000089981249F42E594013D55B035B8D4140,288,Geluk,1936.0,632323201:631,wushi gou si,吾什苟寺,བུ་དགུ་དགོན,bu dgu dgon,G1KR2459,100.73366,35.10434
0101000020E6100000C2340C1F11C158403333333333F33C40,289,Geluk,,533422206:12,Zhayi si,扎依寺,,,G1KR806,99.01667,28.95
0101000020E6100000289B72857747594093C6681D55D53D40,290,Jonang,1387.0,513325204:502,tuba si,土巴寺,ཐུབ་པ་དགོན་པ,thub pa dgon pa,G4079,101.11667,29.83333
0101000020E61000007D7901F6D1FB5740325019FF3EEB3F40,291,DrukpaKagyu,1809.0,632725206:210,caijiu si,采久寺,ཚེས་བཅུ་དགོན,tshes bcu dgon,G2613,95.93469,31.91893
0101000020E6100000D8648D7A8848594092C6681D55953D40,292,DrukpaKagyu,1240.0,513325205:485,bangmulin si,膀木林寺,ཕག་མོ་རིའི་དགོན་པ,phag mo ri'i dgon pa,G4096,101.13333,29.58333
0101000020E6100000999999999939594048E17A14AEA74140,293,Bon,,632323203:633,wangjia cantuohu si,王加参托乎寺,བོན་བརྒྱའི་མཚམས་ཐོག,bon brgya'i mtshams thog,G1KR2464,100.9,35.31
0101000020E6100000B24B546F0D145840ED815660C80E4040,294,DrukpaKagyu,1451.0,632725201:131,sangmai si,桑买寺,བྱམས་མེ་དགོན,byams me dgon,G2618,96.31332,32.11549
0101000020E6100000F7CC9200350958402670EB6E9EE23F40,295,KarmaKagyu,1835.0,632725206:138,yewen si,叶文寺,ཡིད་དབང་དགོན,yid dbang dgon,G2619,96.14386,31.88523
0101000020E6100000E09C11A5BD435940F20703CFBDB34140,296,Geluk,1925.0,632323203:366,suoma si,索玛寺,སོ་མའི་སྒར་ཁ,so ma'i sgar kha,G1KR2466,101.05845,35.40423
0101000020E61000008E01D9EBDD7D5840D39FFD4811913E40,297,Geluk,,542126102:75,Xiangkang si,向康大殿,,,G1KR1205,97.96667,30.56667
0101000020E610000098512CB7B4FE574064062AE3DF074040,298,BaromKagyu,1211.0,632725208:153,lalong si,拉隆寺,ལྷ་ལུང་དགོན,lha lung dgon,G2622,95.97978,32.06152
0101000020E6100000713D0AD7A3905940029F1F4608474240,299,Geluk,1777.0,632123204:105,zhang jia si,山城沟寺,ཧྲན་ཁྲིན་དགུ་ཟི,hran khrin dgu zi,G1PD96088,102.26,36.55494
0101000020E61000001E6D1CB116035840E13B31EBC5D83F40,300,DrukpaKagyu,1640.0,632725206:133,qiupu si,秋普寺,ཆོས་ཕུག་དགོན,chos phug dgon,G2624,96.04826,31.84677
0101000020E6100000B81E85EB51A8594048E17A14AE474240,302,Geluk,1692.0,632123210:112,luhua si,芦花寺,ལོ་དཀར་དགོན,lo dkar dgon,G1PD96091,102.63,36.56
0101000020E61000008F705AF0A29D594052EDD3F198394240,303,Geluk,1500.0,632123101:114,nan shan si,南山寺,ནན་ཧྲན་ཟི,nan hran zi,G1PD96093,102.46307,36.44998
0101000020E6100000B69C4B715545594006D3307C44C43D40,304,Geluk,1835.0,513325210:507,zhaga si,扎呷寺,ཉག་ཆུ་རྫོང་བྲག་དཀར་དགོན,nyag chu rdzong brag dkar dgon,G4088,101.08334,29.76667
0101000020E6100000BDA94885B1FF57408807944DB9064040,305,BaromKagyu,,632725208:151,wazuo qiulin si,哇佐求林寺,ཝ་ཛོ་ཆོས་གླིང་དགོན,wa dzo chos gling dgon,G2632,95.99521,32.05253
0101000020E610000003CFBD874B005840187D0569C60A4040,306,BaromKagyu,1885.0,632725208:155,mengzhuo si,蒙卓寺,སྨིན་གྲོལ་དགོན,smin grol dgon,G2633,96.00461,32.08418
0101000020E6100000D847A7AE7CAA59407DE882FA96394240,307,Geluk,,632123211:116,jing hran si,金山寺,ཅིང་ཧྲན་ཟི,cing hran zi,G1PD96095,102.66386,36.44992
0101000020E610000021C32ADEC8005840207BBDFBE3054040,308,BaromKagyu,,632725208:156,lalang si,拉朗寺,ལྷ་ལམ་དགོན,lha lam dgon,G2635,96.01226,32.04602
0101000020E6100000DE76A1B94EF15740384A5E9D63244040,309,KarmaKagyu,1773.0,632725205:162,dangyun si,当云寺,སྡོམ་ཡོ་སྐལ་བཟང་དགོན,sdom yo skal bzang dgon,G2636,95.77043,32.28429
0101000020E61000000000000000605940609335EA21223D40,814,,,513324200:45,Pengpeng,朋朋寺,པེང་པེང་སི,peng peng si,G1KR309,101.5,29.13333
0101000020E61000009ED2C1FA3FE3574022895E46B1244040,310,KarmaKagyu,1733.0,632725205:161,dongnang laqiong si,东囊拉穹寺,སྟོང་ནག་བླ་ཆུང་དགོན,stong nag bla chung dgon,G2638,95.55078,32.28666
0101000020E61000004963B48EAADA5840A06CCA15DE9D3B40,311,Geluk,,533423206:20,Kegong si,柯公寺,,,G1KR814,99.41666,27.61667
0101000020E61000006DC5FEB27BE65740713D0AD7A3284040,312,ShangpaKagyu,1400.0,632725205:165,gongbao si,公保寺,མགོན་པོ་དགོན,mgon po dgon,G2641,95.6013,32.3175
0101000020E610000072FE261422425940C5F99B5088483D40,313,KarmaKagyu,1943.0,513325208:497,langjiling si,即吉岭寺,རྣམ་རྒྱལ་གླིང་དགོན་པ,rnam rgyal gling dgon pa,G4093,101.03333,29.28333
0101000020E6100000B79C4B7155C55840A06CCA15DE5D3B40,314,Kagyu,,533423202:21,Taiping yuan,太平院,,,G1KR811,99.08334,27.36667
0101000020E61000007E5704FF5BFD5740BBF2599E073F4040,315,NedoKagyu,1745.0,632725204:172,ranjue si,然觉寺,རབ་འབྱོར་དགོན,rab 'byor dgon,G2645,95.95874,32.49242
0101000020E6100000AC1A84B9DDF7574045F12A6B9B323F40,316,Bon,1386.0,542125200:254,jiangpu si,江普寺,,,G1KR1147,95.872908,31.197684
0101000020E6100000386744696FD2564038F3AB3940103E40,317,Chod,1200.0,540121206:540121118,sandanding si,桑丹定寺,བསམ་གཏན་སྟེང,bsam gtan steng,G4597,91.28805,30.06348
0101000020E6100000A1BE654E97095840091B9E5E295F4040,318,BaromKagyu,1231.0,632721203:176,xiaopu si,肖甫寺,ཤོར་ཕུ་དགོན,shor phu dgon,G2647,96.14986,32.74345
0101000020E61000000CE544BB0A4D5940D47D00529BDC4140,319,Geluk,1949.0,632525204:379,mashigan si,麻什干寺,སྨར་ཁམས་མཚམས་ཁང,smar khams mtshams khang,G1KR2609,101.20378,35.72349
0101000020E61000008048BF7D1D8C5940EDF0D7648D6E4240,320,Geluk,1930.0,632126208:135,jin gang si,金刚寺,རྟག་བརྟན་རྡོ་རྗེ་གླིང,rtag brtan rdo rje gling,G1PD96105,102.1893,36.86369
0101000020E6100000404D2D5BEB03584090A0F831E6464040,321,BaromKagyu,1700.0,632725204:178,maitugai si,买土改寺,རྨད་མཐིལ་དགེ་དགོན,rmad mthil dge dgon,G2649,96.06124,32.5539
0101000020E610000032C9C859D87F5940D7DD3CD5216F4240,322,Sakya,1322.0,632126210:138,kai fo si,开佛寺,ཅོག་ཚར་སྒར,cog tshar sgar,G1PD96106,101.99758,36.86822
0101000020E61000003333333333F35740CCCCCCCCCC4C3F40,323,Geluk,,542125200:258,Ranre si,仁热寺,,,G1KR1151,95.8,31.3
0101000020E61000003ECBF3E0EE5E5940D29FFD4811513E40,324,Nyingma,1500.0,513321217:111,balang si,八郎寺,བཱཿ་གནས་དགོན,bAH gnas dgon,G3789,101.48333,30.31667
0101000020E61000001FD7868A7136584043C02154A9A94040,325,DrigungKagyu,1200.0,632721200:72,,扎西寺,བཀྲ་ཤིས་དགོན,bkra shis dgon,G2650,96.85068,33.32548
0101000020E6100000C8D11C59F9F657404451A04FE43D3F40,326,Bon,1383.0,542125200:260,zizhu si,孜珠寺,རྩེ་དྲུག་དགོན,rtse drug dgon,G1KR1153,95.858969,31.241765
0101000020E610000072FE26142262594007D3307C44043E40,327,Sakya,1381.0,513321213:107,qumu si,曲木寺,ཕྱུག་མོ་དགོན,phyug mo dgon,G3793,101.53333,30.01667
0101000020E61000000AD7A3703D7A5940D7A3703D0A774240,328,Geluk,,632126214:140,quelong si,却隆寺,བུམ་པ་ཆོས་ལུང,bum pa chos lung,G1PD96108,101.91,36.93
0101000020E610000097512CB7B434584021EA3E00A9214040,329,ZurmangKagyu,1414.0,632725203:181,sumang nangjieze si,苏莽囊杰则寺,ཟུར་མང་རྣམ་རྒྱལ་རྩེ་དགོན,zur mang rnam rgyal rtse dgon,G2652,96.82353,32.26297
0101000020E6100000747B4963B4365840F545425BCEFD3F40,330,ZurmangKagyu,1943.0,632725202:185,guonai si,郭乃寺,སྒང་ནེ་དགོན,sgang ne dgon,G2653,96.85476,31.99143
0101000020E6100000FCDEA63FFB3558400D6C956071004040,331,ZurmangKagyu,1771.0,632725202:184,zhisuo si,直索寺,ཀྲིག་སོ་དགོན,krig so dgon,G2654,96.84346,32.00346
0101000020E610000072FE261422325940FA2CCF83BB3B3E40,332,Nyingma,1949.0,513325202:490,bigong si,比贡寺,སྤུ་པ་རོང་དགོན་པ,spu pa rong dgon pa,G4099,100.78333,30.23333
0101000020E6100000D4B7CCE9B2FA5740E6965643E20E4040,333,BaromKagyu,1700.0,632725208:188,walong si,哇龙寺,ཝ་ལུང་དགོན,wa lung dgon,G2656,95.91717,32.11628
0101000020E6100000C2340C1F110156406566666666E63C40,1203,Sakya,1073.0,542325101:542325101,sajia si,萨迦寺,,,G880,88.01667,28.9
0101000020E610000033333333334359409F6CCA15DE9D3D40,334,Bon,1575.0,513325207:487,tanggang si,唐岗寺,ཐང་སྒང་དགོན་པ,thang sgang dgon pa,G4100,101.05,29.61667
0101000020E6100000DC114E0B5EEA5740C347C494480A4040,335,YelpaKagyu,1200.0,632725207:187,ga zhaxi si,嘎扎西寺,ཀ་བཀྲ་ཤིས་དགོན,ka bkra shis dgon,G2657,95.66199,32.08034
0101000020E61000007E8CB96B09D157401C25AFCE31744040,336,KarmaKagyu,1600.0,632722350:85,siri si,斯日寺,གཟི་དགོན་པ,gzi dgon pa,G2658,95.2662,32.90777
0101000020E6100000126BF12900DC564035B56CAD2F623C40,337,Nyingma,1250.0,542227100:542227102,,乃西寺,གནས་གཞི་དགོན,gnas gzhi dgon,G4628,91.43751,28.38354
0101000020E6100000092E56D460EE574020D26F5F077E4040,338,NedoKagyu,1662.0,632722200:88,naiduo si,乃多寺,གནས་མདོ་དགོན།,gnas mdo dgon/,G2659,95.72466,32.9846
0101000020E6100000FD261422E0A859400E10CCD1E3F73E40,339,Geluk,1786.0,513227207:73,dawei si,达维寺,ཏ་ཝེ་དགོན,ta we dgon,G1KR51,102.63868,30.96832
0101000020E6100000E86514CB2DE557402575029A087F4040,340,KarmaKagyu,1910.0,632722200:89,jiezhong si,杰仲寺,རྗེ་དྲུང་དགོན,rje drung dgon,G2661,95.58092,32.99245
0101000020E6100000F5673F524484594007D3307C44843E40,341,Sakya,1150.0,513321218:98,zheluo si,折洛寺,བྱང་ཆུབ་དགོན,byang chub dgon,G3796,102.06667,30.51667
0101000020E6100000A33B889D29A059408B37328FFC713F40,342,Bon,,513227212:71,dazhai si,大寨寺,བྲག་ནག་དགོན,brag nag dgon,G1KR54,102.50254,31.44526
0101000020E6100000A067B3EA73E75740E8137992747D4040,343,Nyingma,1882.0,632722200:92,juezegai si,觉则改寺,ཅོག་ཙེ་དགེ་དགོན,cog tse dge dgon,G2662,95.61645,32.98012
0101000020E61000004C6C3EAE0D9B594061156F641E893F40,344,Nyingma,1938.0,513227212:77,Da ping si,达坪寺,ད་ཕན་དགོན,da phan dgon,G1KR55,102.42271,31.53562
0101000020E61000002619390B7BE65740FFE21934F47F4040,345,KarmaKagyu,1630.0,632722200:90,saizha si,赛扎寺,སེར་རྩ་དགོན,ser rtsa dgon,G2663,95.60126,32.99964
0101000020E610000043E21E4B1F9C5940F61E2E39EE243F40,346,Bon,1839.0,513227214:79,bajiao si,八角寺,སེངྒེ་དགོན,seng+ge dgon,G1KR56,102.43941,31.14426
0101000020E61000008D5DA27A6BD457409DD7D825AA434040,347,DrigungKagyu,1829.0,632722204:93,zalong si,杂龙寺,རྫ་ལུང་དགེ་དགོན,rdza lung dge dgon,G2664,95.31906,32.52863
0101000020E6100000B71E85EB5178594001F6D1A92B1F4240,348,,1322.0,632127203:166,dongchong si,东冲寺,རྟ་གདོང་དཀར་པོ,rta gdong dkar po,G1PD96122,101.88,36.24352
0101000020E6100000C1340C1F1161594093C6681D55D53E40,349,Nyingma,1725.0,513326219:472,shachong si,沙冲寺,ཤར་རོང་དགོན,shar rong dgon,G4102,101.51667,30.83333
0101000020E6100000E7525C55F6BF5940F33CB83B6B074040,350,Nyingma,1400.0,513228100:148,,？,བདེ་ཆེན་ཐོས་བསམ་མགོན་པོ་གླིང,bde chen thos bsam mgon po gling,G1KR59,102.99941,32.05796
0101000020E610000010AFEB17ECC05940F33CB83B6B074040,351,Nyingma,1470.0,513228100:147,deqinglang si,德青郎寺,བདེ་ཆེན་གླིང་དགོན,bde chen gling dgon,G1KR60,103.01441,32.05796
0101000020E610000004560E2DB2B359408C101E6D1C0D4040,352,Nyingma,1080.0,513228200:146,shashiduo si,沙石多寺,ས་སྟོད་དགོན,sa stod dgon,G1KR61,102.80775,32.10243
0101000020E6100000252367614F7F5940CA89761552024240,353,,907.0,632127101:168,andaqiha kawang si,安达其哈卡昂寺,མཁར་ནང་དགོན་པ,mkhar nang dgon pa,G1PD96125,101.98922,36.01813
0101000020E6100000DE54A4C2D8CA57406362F3716D884040,354,Nyingma,1944.0,632722206:104,sangqingai si,桑钦改寺,གསང་ཆེན་དགེ་དགོན,gsang chen dge dgon,G2670,95.16948,33.06584
0101000020E6100000BC3FDEAB56D059409DBAF2599E074040,355,Bon,,513228203:157,xiwei si,西维寺,ར་ཝོ་དགོན,ra wo dgon,G1KR65,103.25529,32.05952
0101000020E61000001F85EB51B87E59402310AFEB17044240,356,Geluk,,632127101:169,gomgyi si,贡依寺,སྒོམ་ཞིས་དགོན་པ,sgom zhis dgon pa,G1PD96126,101.98,36.03198
0101000020E6100000A297512CB7D0594052D50451F7014040,357,Kadampa,1690.0,513228209:151,xiba si,西巴寺,སྤྱི་བྷ་དགོན,spyi bha dgon,G1KR66,103.26118,32.01536
0101000020E61000000B98C0ADBB5B5940FFFFFFFFFF7F3E40,358,Nyingma,1650.0,513326218:476,ranxia si,然吓寺,རྭ་ཤེལ་དགོན,rwa shel dgon,G4103,101.43333,30.5
0101000020E6100000AD2990D959D15740E12538F581883F40,359,Bon,1413.0,542125205:274,xiase yongzong si,夏色拥宗寺,,,G1KR1175,95.271109,31.533233
0101000020E61000004963B48EAA4A5940CCCCCCCCCC4C3F40,360,Nyingma,1650.0,513326212:474,yinka si,因喀寺,གཡུ་མཁར་དགོན,g.yu mkhar dgon,G4105,101.16666,31.3
0101000020E610000077D1579066CC594097A8DE1AD8164040,361,Bon,957.0,513228214:152,(在 宗教史要 中位于黑水县的笨教寺院只有希维寺和维尔寺 - 后者建在知木林乡.  ),,གཉན་ཙོ་དགོན,gnyan tso dgon,G1KR69,103.19376,32.17847
0101000020E610000032333333338359406B2BF697DD0F4240,362,Geluk,1856.0,632127206:171,gawu si,尕吾寺,དཀར་བོ་བགོན,dkar bo bgon,G1PD96128,102.05,36.12395
0101000020E6100000BFF1B56796CC59404B4F58E201194040,363,Bon,1040.0,513228214:156,weier si,维尔寺,བོའི་འུར་དགོན,bo'i 'ur dgon,G1KR70,103.19668,32.19537
0101000020E61000007B6B60AB04495840FFE7305F5EA44040,364,Nyingma,,632723206:57,dieda a-mie si,迭达阿乜寺,དོན་མདའི་ཨ་མྱེ་དགོན,don mda'i a mye dgon,G2675,97.14091,33.28413
0101000020E61000000A117008558C5940E4AAB2EF8AE83F40,365,Nyingma,,513229100:23,E er ya si,俄尔雅寺,སྒོ་ཡག་དགོན,sgo yag dgon,G1KR72,102.19269,31.90837
0101000020E610000014AE47E17A6454401F85EB51B89E3E40,366,Sakya,1450.0,542521201:62,,聂果寺,གཉའ་སྒོ་དགོན,gnya' sgo dgon,G1KR1779,81.57,30.62
0101000020E6100000001DE6CB0B4458400FD6FF39CC974040,367,Nyingma,1760.0,632723206:24,a-mie si,阿乜寺,དཔལ་ཆུང་ཨ་མྱེ་དགོན,dpal chung a mye dgon,G2678,97.06322,33.18592
0101000020E61000006666666666E653400000000000803F40,368,Geluk,1450.0,542522100:34,,洛当寺,བློས་བཏང་དགོན་པ,blos btang dgon pa,G1KR1791,79.6,31.5
0101000020E610000065666666668659405E85949F541B4240,369,Geluk,1628.0,632127207:174,dejia si,德加寺,ཏིག་རྒྱའི་དགོན་པ,tig rgya'i dgon pa,G1PD96131,102.1,36.21352
0101000020E6100000C2340C1F115158400000000000403E40,1957,Kagyu,,542127204:103,Xingong si,新贡寺,,,G1KR1254,97.26667,30.25
0101000020E6100000CDCCCCCCCC8C5940F91400E319144240,370,Geluk,1393.0,632127208:176,gexu si,格许寺,དགེ་ཕྱུག་དགོན་པ,dge phyug dgon pa,G1PD96132,102.2,36.15704
0101000020E6100000FD82DDB06D3D5840276BD44334E24040,371,Nyingma,1832.0,632723201:68,juewu si,角吾寺,སྐྱེ་བོ་དགོན,skye bo dgon,G2680,96.95982,33.76722
0101000020E6100000C8AB730CC81A584054742497FF144040,372,Nyingma,1801.0,632725200:122,sazong si,洒宗寺,བྱ་རྫོང་དགོན,bya rdzong dgon,G2681,96.41846,32.16405
0101000020E6100000CDCCCCCCCCBC53400100000000C03F40,373,,1050.0,542522202:7,Phuri,普日寺,ཕུ་རི་དགོན་པ,phu ri dgon pa,G1KR1813,78.95,31.75
0101000020E610000078E9263108905940965B5A0D89F34140,374,Nyingma,1690.0,632127102:228,kagang si,卡岗寺,མཁར་སྒང་དགོན་པ,mkhar sgang dgon pa,G1PD96134,102.2505,35.90262
0101000020E61000006666666666265440CDCCCCCCCC0C3F40,375,,1050.0,542522204:5,qionglong si,琼龙寺,ཁྱུང་ལུང་དགོན,khyung lung dgon,G1KR1829,80.6,31.05
0101000020E61000009A999999995959409F6CCA15DE9D3E40,376,Nyingma,1700.0,513326217:473,laowutong si,劳吾通寺,ལ་ཐང་དགོན,la thang dgon,G4110,101.4,30.61667
0101000020E610000084ED27637C9F57402CD670917B8A3D40,377,Bon,1330.0,542621100:523,sejia gengqing si,色迦更青寺,,,G1KR1854,94.491967,29.540948
0101000020E610000014E8137992E85740AA9A20EA3E644040,378,Bon # Nyingma,?,632722201:96,duoji si,多吉寺,སྟོབས་བཅུ་དགོན,stobs bcu dgon,G2687,95.63394,32.78317
0101000020E61000007689EAAD810158409CF9D51C20084040,379,Nyingma,?,632725208:159,dangba si,当巴寺,གཏམ་དཔལ་དགོན,gtam dpal dgon,G2688,96.02354,32.06348
0101000020E6100000EC51B81E858B5940DC4B1AA375EC4140,380,Geluk,1980.0,632128205:182,liegan si,列干寺,ལེ་རྒན་དགོན་པ,le rgan dgon pa,G1PD96138,102.18,35.84734
0101000020E610000078B988EFC4BA5940685721E527254240,381,Geluk,1692.0,632122200:82,,香水寺,ཧང་ཧྲུའུ་ཟི,hang hru'u zi,G1KR2142,102.91827,36.29028
0101000020E61000008E01D9EBDD0D59400000000000C03C40,382,TaklungKagyu,1275.0,513337206:416,zha-e si,扎俄寺,བྲག་མགོ་དགོན,brag mgo dgon,G3854,100.21667,28.75
0101000020E610000079E9263108925940DE76A1B94E034240,383,Geluk,1500.0,632127100:183,gajia si,尕加寺,ཀ་ཀྱ་བྲག་ཁང་དགོན་པ,ka kya brag khang dgon pa,G1PD96139,102.28175,36.02584
0101000020E6100000CDCCCCCCCC3C5940609335EA21223F40,384,Nyingma,1700.0,513326202:468,geta si,戈他寺,གོང་ཐར་དགོན་པ,gong thar dgon pa,G4104,100.95,31.13333
0101000020E6100000F584251E50E45740323D618907644040,385,Nyingma,1831.0,632722201:91,qiulin si,曲林寺,བཀྲ་ཤིས་ཆོས་གླིང་དགོན,bkra shis chos gling dgon,G2691,95.56739,32.78148
0101000020E610000072FE26142242594092C6681D55953E40,386,Nyingma,1500.0,513326206:469,zhatuo si,扎拖寺,བྲག་ཐོག་དགོན,brag thog dgon,G4106,101.03333,30.58333
0101000020E610000099D36531B19D5940BF5B2041F1DB4040,387,Geluk,1751.0,513232203:165,zhebang si,哲蚌寺,བྱམས་མེ་དགོན,byams me dgon,G4652,102.46394,33.7183
0101000020E61000002D78D15790AE5940FB3A70CE882A4240,388,Geluk,1692.0,632122218:79,songshu si,松树寺,སུའུ་ཧྲུའུ་ཟི,su'u hru'u zi,G1KR2182,102.72756,36.3323
0101000020E61000004963B48EAA4A59400000000000C03E40,389,Kagyu # Nyingma,? # 1850,513326210:470,gaqia si,呷卡寺,དཀར་ཆོས་དགོན,dkar chos dgon,G4115,101.16666,30.75
0101000020E610000098A3C7EF6DE25940D15790662C864140,390,Geluk,1678.0,623022211:623022122,kangduo si,康多寺,ཁང་ཐོག་དགོན,khang thog dgon,G4855,103.53796,35.04823
0101000020E6100000AF42CA4FAA9D59400AD7A3703D4A4240,391,Geluk,1669.0,632123207:119,dalianshan jingfang,达连山静房,ཏ་ལན་ཧྲན་མཚམས་ཁང,ta lan hran mtshams khang,G1KR2200,102.46352,36.58
0101000020E61000004351A04FE4175840DE59BBED42834140,392,Nyingma,1925.0,632726204:76,bujuxiao si,布居肖寺,བུ་རྒྱུད་ཤོག་དགོན་པ,bu rgyud shog dgon pa,G2697,96.37331,35.02548
0101000020E6100000F4673F5244645940D29FFD4811513E40,393,Rime,641.0,513321217:101,tagong si,塔公寺,ལྷ་སྒང་དགོན,lha sgang dgon,G3791,101.56667,30.31667
0101000020E61000001EFE9AAC5119584048BF7D1D38834140,394,Nyingma,1951.0,632726204:82,gaibaxiao si,改巴肖寺,གན་པ་ཤོག་དགོན་པ,gan pa shog dgon pa,G2699,96.39561,35.02515
0101000020E61000008F8D40BCAE99594018096D39970A4240,395,Geluk,,632127214:188,jia gan ruo si,加干若寺,རྭ་ཟའི་སྟག་དགོན་པ,rwa za'i stag dgon pa,G1PD96168,102.40129,36.08274
0101000020E6100000EDB60BCD75165840335019FF3E834140,396,Nyingma,1943.0,632726204:80,haxiuxiao si,哈秀肖寺,ཧ་ཤུལ་ཤོག་དགོན,ha shul shog dgon,G2700,96.35094,35.02536
0101000020E61000006666666666165940D39FFD4811913C40,397,Kagyu,1200.0,513337208:414,chonggu si,冲古寺,མཚོ་མགོ་དགོན,mtsho mgo dgon,G3861,100.35,28.56667
0101000020E610000043E7357689BC5740CD920035B56C4140,398,Nyingma,1949.0,632726205:81,recangxiao si,热仓肖寺,ར་ཚང་ཤོག་དགོན་པ,ra tshang shog dgon pa,G2702,94.94589,34.84928
0101000020E61000007094BC3AC79E5640A6272CF180FA3C40,399,Bodong,1440.0,542233100:542233104,sangding si,桑丁寺,བསམ་སྡིངས་དགོན་པ,bsam sdings dgon pa,G412,90.48091,28.97853
0101000020E610000072FE261422D2574093C6681D55553D40,400,Nyingma,,542624201:551,Luobang si,洛帮寺,,,G1KR1877,95.28333,29.33333
0101000020E6100000F5673F5244D4574006D3307C44C43D40,401,Nyingma,,542624205:548,Baimaweilin si,白玛卫林寺,,,G1KR1879,95.31667,29.76667
0101000020E61000000000000000A05940A27A6B60AB044240,402,Nyingma,1290.0,632127216:195,zhihajia ekang,支哈加俄康,བྲག་དཀར་རྒྱ་སྔགས་ཁང,brag dkar rgya sngags khang,G1PD96173,102.5,36.03648
0101000020E61000000000000000A0594005DD5ED218F54140,404,Nyingma,1730.0,632127102:196,keba ekang,科巴俄康,ཁོར་པ་སྔགས་ཁང,khor pa sngags khang,G1PD96174,102.5,35.91482
0101000020E610000072FE261422A258405F9335EA21E23E40,405,Nyingma,,542123203:330,Xiatang si,下塘寺,,,G1KR1103,98.53333,30.88333
0101000020E61000004030478FDF2758400D1AFA27B8BC4040,406,Sakya,1296.0,632721207:37,dajie si,达杰寺,དར་རྒྱས་དགོན,dar rgyas dgon,G2711,96.62302,33.47437
0101000020E6100000D8F0F44A5928584044C02154A9B94040,407,Sakya,1300.0,632721207:41,nangpu si,囊朴寺,གནམ་ཕུ་དགོན,gnam phu dgon,G2713,96.63045,33.45048
0101000020E6100000B69C4B7155455940C6F99B5088883E40,408,Geluk,1600.0,513326204:467,duga si,杜呷寺,གདུགས་དཀར་དགོན,gdugs dkar dgon,G4124,101.08334,30.53333
0101000020E610000029B3412619A95940033E3F8C10FA4140,409,Geluk,1522.0,632127217:200,tajia si,塔加寺,ཐ་ཀྱ་དགོན,tha kya dgon,G1PD96272,102.64216,35.95363
0101000020E61000000000000000505740C5F99B5088883F40,1672,Geluk,,542423206:428,Demu si,德木寺,,,G1KR1682,93.25,31.53333
0101000020E6100000283FA9F6E9AE5640261422E010D23D40,410,Rime,650.0,540125202:540125115,cuomai si,措麦寺,མཚོ་སྨད་དགོན་པ,mtsho smad dgon pa,G4616,90.73303,29.82057
0101000020E61000009A99999999A959407B14AE47E1FA4140,411,Geluk,1522.0,632127217:201,baijia si,白家寺,བིས་ཀྱའི་དགོན,bis kya'i dgon,G1PD96273,102.65,35.96
0101000020E61000009A99999999A959400664AF777FF04140,412,Geluk,1393.0,632127217:202,gongshijia si,公什甲寺,གོང་སྐྱ་ཡང་དགོན,gong skya yang dgon,G1PD96274,102.65,35.87889
0101000020E61000000B98C0ADBB5B5940FFFFFFFFFF7F3E40,413,Nyingma,1700.0,513326218:477,gulu si,古鲁寺,སྐུ་ནུབ་དགོན,sku nub dgon,G4108,101.43333,30.5
0101000020E61000009A99999999C95840CDCCCCCCCC8C3F40,414,Nyingma,1675.0,513331206:337,kongma si,孔马寺,ཁང་དམར་དགོན,khang dmar dgon,G3810,99.15,31.55
0101000020E61000000B98C0ADBB3B56406666666666663B40,415,Nyingma,1700.0,542334204:542334108,baxia si,巴夏寺,,,G1KR1638,88.93333,27.4
0101000020E6100000C251F2EA1C5358400057B26323804040,416,Bon,,632723205:58,saida si,赛达寺,སེབ་མདའ་འདགོན་པ,seb mda' 'dgon pa,G2720,97.29864,33.00108
0101000020E6100000289B728577B758403233333333B33E40,417,Nyingma,,542123209:335,Dasong si,达松寺,,,G1KR1117,98.86667,30.7
0101000020E61000003ECBF3E0EE5E5940F92CCF83BB7B3E40,418,Sakya,,513326101:463,shankagong si,山卡贡寺,ས་མཁར་དགོན,sa mkhar dgon,G4129,101.48333,30.48333
0101000020E6100000289B728577B758403233333333B33E40,419,Nyingma,,542123209:337,Luogen si,罗根寺,,,G1KR1119,98.86667,30.7
0101000020E61000006666666666265940C5F99B5088483E40,420,Geluk,1700.0,513334206:266,ayi si,阿依寺,ཨ་ཡིག་དགོན,a yig dgon,G3876,100.6,30.28333
0101000020E61000000B98C0ADBB5B5940FFFFFFFFFF7F3E40,421,Nyingma,1675.0,513326218:479,bailuo richu si,白洛日初寺,བེ་ལོ་རི་ཁྲོད་དགོན,be lo ri khrod dgon,G4116,101.43333,30.5
0101000020E61000003ECBF3E0EE5E5940F92CCF83BB7B3E40,422,KarmaKagyu # Geluk,12uu # 1862,513326101:462,gao-erqia si,高尔卡寺,ཀ་བཞི་དགོན,ka bzhi dgon,G4130,101.48333,30.48333
0101000020E6100000925CFE43FA0558402C211FF46C524040,423,Sakya,1821.0,632725204:182,niya si,尼亚寺,ཉ་ཡག་དགོན,nya yag dgon,G2732,96.0934,32.64395
0101000020E6100000CDCCCCCCCC0C5840C5F99B5088883F40,424,Nyingma,,542124205:285,Guoqin si,郭钦寺,,,G1KR1136,96.2,31.53333
0101000020E610000033333333335359406E3997E2AA6A3D40,425,Sakya,1196.0,513321211:99,kunjue si,昆觉寺,ཁུ་འབྱོར་དགོན,khu 'byor dgon,G3797,101.3,29.41667
0101000020E6100000CA37DBDC98AC5940FCA9F1D24DCE4140,426,,1359.0,632128200:261,bilun si,比仑寺,སྤེལ་ལུང་སྒྲུབ་སྡེ,spel lung sgrub sde,G1PD96296,102.69683,35.61175
0101000020E610000000000000003059403A0664AF77F73B40,427,Geluk,1714.0,513422207:6,Renjiang Gun,仁江衮,,,G1KR762,100.75,27.96667
0101000020E6100000651C23D9230056408CB5BFB33D5E3D40,428,Jonang,1615.0,,pengcuolin si,彭措林寺,རྟག་བརྟན་ཕུན་ཚོགས་གླིང,rtag brtan phun tshogs gling,G390,88.002188,29.368129
0101000020E61000004863B48EAA5A58402D6002B7EE6E4040,429,Kagyu,1725.0,513332200:389,zere si,则热寺,རྩེ་རི་དགོན,rtse ri dgon,G4149,97.41666,32.86666
0101000020E61000004863B48EAA2A59409A99999999993D40,430,Sakya,1482.0,513334215:261,meiji si,梅吉寺,མི་འགྱུར་དགོན,mi 'gyur dgon,G3901,100.66666,29.6
0101000020E61000004A24D1CB282E5740A228D027F2143D40,432,Geluk,1925.0,542229100:542229104,Reting Trungkhang,热振冲康寺,རྭ་སྒྲེང་འཁྲུངས་ཁང,rwa sgreng 'khrungs khang,G4636,92.72124,29.08182
0101000020E6100000C2340C1F111159403233333333F33F40,433,Geluk,1600.0,513328216:302,da ji ling si,大吉岭寺,དར་རྒྱས་དགོན ༼དཀར་མཛེས་རྫོང༽,dar rgyas dgon (dkar mdzes rdzong),G2CN10946,100.26667,31.95
0101000020E6100000C2340C1F11015940A06CCA15DE9D3F40,434,Geluk,1662.0,513328211:327,kongma si,空玛寺,,,G2CN10947,100.01667,31.61667
0101000020E6100000B69C4B7155455940D39FFD4811913E40,435,Geluk,1725.0,513326206:475,hongding si,红顶寺,སྔགས་སྒང་དགོན,sngags sgang dgon,G4127,101.08334,30.56667
0101000020E61000003333333333435640CDCCCCCCCC4C3D40,436,Sakya,1475.0,542301208:542309,seduojian si,色多坚寺,གསེར་མདོག་ཅན,gser mdog can,G391,89.05,29.3
0101000020E610000080ECF5EE8F2F59402CBCCB457C974140,437,Nyingma,1950.0,632522500:400,xiangchi si,香赤寺,ཤིང་ཁྲི་དགོན,shing khri dgon,G4161,100.74316,35.18348
0101000020E610000039622D3E05BC56403D7958A835A53D40,438,Rime,750.0,540125203:540125108,juemolong si,觉摩隆寺,སྐྱོར་མོ་ལུང,skyor mo lung,G4164,90.93782,29.64535
0101000020E6100000825660C8EA4E584062A1D634EF2C4040,439,DrukpaKagyu,1576.0,632721202:34,re-ai si,热艾寺,ར་གེབ་དགོན་པ,ra geb dgon pa,G1KR2706,97.23308,32.35105
0101000020E61000004863B48EAA5A58402D6002B7EE6E4040,440,Geluk,1400.0,513332200:387,mada si,麻达寺,འབར་དྷ་དགོན,'bar d+ha dgon,G3924,97.41666,32.86666
0101000020E61000004863B48EAA5A58402D6002B7EE6E4040,441,Geluk,1444.0,513332200:388,zhiba si,志巴寺,གྲུ་བ་དགོན་བཀྲ་ཤིས་གླིང,gru ba dgon bkra shis gling,G3927,97.41666,32.86666
0101000020E610000059FAD005F52558400F289B7285534040,442,Nyingma,1800.0,632721204:195,renzhegai si,仁者改寺,རིང་དྲིན་ཀེད་ཟི,ring drin ked zi,G1KR2714,96.59308,32.65251
0101000020E6100000BB270F0BB5AA594023DBF97E6A984140,443,Geluk,1750.0,623027203:623027126,laqia gaer si,拉恰噶尔寺,ལྷ་ཆབ་སྒར,lha chab sgar,G4729,102.6673,35.19075
0101000020E6100000B79C4B71558558401D03B2D7BB7B4040,444,Geluk,1400.0,513332100:391,jumu si,巨木寺,འཇུ་མང་དགོན,'ju mang dgon,G3929,98.08334,32.96667
0101000020E6100000DFE00B93A90A58408B4F01309E7D4040,445,Sakya,1757.0,632721205:16,charou si,察柔寺,ཁྲ་རུག་དགོན་པ,khra rug dgon pa,G1KR2719,96.1666,32.98139
0101000020E6100000C2340C1F11815840B79C4B7155B54040,446,Nyingma,1672.0,513332206:402,zhajia si,扎加寺,རྫ་རྒྱལ་དགོན,rdza rgyal dgon,G3933,98.01667,33.41667
0101000020E61000007D91D09673115840CE531D7233A04040,447,DrigungKagyu,1671.0,632721205:14,an-yun si,安云寺,ཨ་འབྱུང་དགོན་པ,a 'byung dgon pa,G1KR2721,96.27268,33.25157
0101000020E61000003333333333D35840F92CCF83BB7B3F40,448,Bon,,513331207:353,dayi si,达依寺,ཟླ་འོད་དགོན,zla 'od dgon,G3829,99.3,31.48333
0101000020E6100000289B728577F75840A06CCA15DE9D3F40,449,Geluk,1649.0,513328203:323,baili si,白利寺,བེ་རི་དགོན,be ri dgon,G380,99.86667,31.61667
0101000020E61000003E3F8C101E3158403A234A7B83AF4040,450,KarmaKagyu,761.0,632721207:38,burang lakang,布让拉康,སྤུ་རོང་ལྷ་ཁང་དགོན,spu rong lha khang dgon,G1KR2725,96.76746,33.3712
0101000020E6100000B79C4B7155955840EACF7EA488884040,451,Nyingma,1752.0,513332211:368,yiniu si,宜牛寺,འཇུ་ཉུང་དགོན,'ju nyung dgon,G3940,98.33334,33.06667
0101000020E6100000C2340C1F11015940A06CCA15DE9D3F40,452,Nyingma,1931.0,513328211:326,zese si,则色寺,འབྲས་ཚལ་དགོན,'bras tshal dgon,G418,100.01667,31.61667
0101000020E61000009CC420B0722658403D27BD6F7CBD4040,453,Bon,1200.0,632721207:33,bangguo si,邦郭寺,འབུམ་མགོ་དགོན,'bum mgo dgon,G1KR2733,96.60075,33.48036
0101000020E61000000B98C0ADBBAB58402D6002B7EE6E4040,454,Geluk,1652.0,513332218:383,wenbo si,温波寺,དབོན་པོ་དགོན,dbon po dgon,G3947,98.68333,32.86666
0101000020E6100000C425C79DD2CF564081B22957782F3C40,455,Kadampa,1225.0,542228203:542228101,diqi si,帝齐寺,ཐིག་ཕྱི་དགོན,thig phyi dgon,G4184,91.24723,28.18543
0101000020E6100000488AC8B08AE757409296CADB11664040,456,NedoKagyu,1910.0,632722201:94,qiuji gai si,秋吉改寺,ཆོས་བརྒྱད་དགེ་དགོན་པ,chos brgyad dge dgon pa,G1KR2746,95.61784,32.79742
0101000020E610000072FE261422725740609335EA21E23F40,457,Geluk,,542427100:444,zandan si,赞丹寺,ཙནྡན་དགོན,tsan+dan dgon,G4688,93.78333,31.88333
0101000020E61000008C101E6D1CBF5740508D976E122F4040,458,BaromKagyu,1346.0,632722204:97,,更那寺,རྒེའུ་སྣ་དགོན་པ,rge'u sna dgon pa,G1KR2747,94.98611,32.36775
0101000020E6100000CDCCCCCCCC0C56402D6002B7EE6E3D40,459,Geluk,1400.0,542328200:542328101,Tashi Gepel,扎西吉培寺,བཞད་བཀྲ་ཤིས་དགེ་འཕེལ,bzhad bkra shis dge 'phel,G630,88.2,29.43333
0101000020E6100000F5673F52448458407D96E7C1DD9D4040,460,Nyingma,1684.0,513332208:372,gemeng si,格蒙寺,དགེ་མང་དགོན,dge mang dgon,G3954,98.06667,33.23333
0101000020E6100000D8648D7A889858401D03B2D7BB5B4040,461,Nyingma,1752.0,513332212:397,xiazha si,虾扎寺,ཕྱག་ཚ་དགོན,phyag tsha dgon,G3956,98.38333,32.71667
0101000020E6100000FC8C0B07427E57400CB08F4E5D714040,462,KarmaKagyu,1911.0,632722205:199,daidong si,代东寺,གཏེར་སྟོན་ཟི,gter ston zi,G1KR2753,93.97278,32.88566
0101000020E6100000AFC91AF5108D57407B4963B48E864040,463,KarmaKagyu,,632722205:107,walong si,哇龙寺,ཝ་ལུང་དགོན་པ,wa lung dgon pa,G1KR2754,94.20416,33.05123
0101000020E610000087DC0C37E08B57405C2041F163884040,464,KarmaKagyu,,632722205:207,gongsha si,贡沙寺,ཀོང་ཧྲ་ཟི,kong hra zi,G1KR2755,94.18556,33.06555
0101000020E61000004963B48EAA7A5840D29FFD4811914040,465,Nyingma,1875.0,513332204:384,gongma si,龚马寺,ལྕང་མ་དགོན,lcang ma dgon,G3960,97.91666,33.13334
0101000020E6100000596E693524FE5640DAC4C9FD0EBD3D40,466,DrigungKagyu,1350.0,540127202:540127115,rennqinglin si,仁青林寺,རིན་ཆེན་གླིང་དགོན,rin chen gling dgon,G2061,91.97096,29.73851
0101000020E61000004863B48EAA5A58402D6002B7EE6E4040,467,Kagyu,,513332200:390,gawu si,嘎乌寺,གའུ་དགོན,ga'u dgon,G3965,97.41666,32.86666
0101000020E6100000EC51B81E85EB584048E17A14AE674040,468,Nyingma,1920.0,632624202:500,hongke si,红科寺,དཔོན་སྐོར་དགོན,dpon skor dgon,G1742,99.68,32.81
0101000020E6100000289B7285773759406D3997E2AAEA3F40,469,Nyingma,639.0,513333213:449,laze si,喇则寺,གསེར་རྟ་ལྷ་རྩེ་དགོན,gser rta lha rtse dgon,G3968,100.86667,31.91667
0101000020E61000009B16BCE82B545840BFF1B56796B44040,470,DrigungKagyu,1300.0,632723202:61,qunze si,群则寺,ཆོས་མཛད་དགོན་པ,chos mdzad dgon pa,G1KR2770,97.31518,33.41084
0101000020E61000003333333333035940E3FC4D2844644040,471,Nyingma,1895.0,513333204:432,longxie si,龙写寺,རླུང་ཤར་དགོན,rlung shar dgon,G3970,100.05,32.78333
0101000020E6100000C2340C1F112159408369183E22024040,472,Nyingma,1690.0,513333210:454,huoxi si,霍西寺,ཧོར་ཤུལ་དགོན,hor shul dgon,G3972,100.51667,32.01667
0101000020E61000008E01D9EBDDBD5840390664AF77F73C40,473,Geluk,,533422206:13,Zhajia si,扎加寺,,,G1KR807,98.96667,28.96667
0101000020E61000008D01D9EBDD1D59402D6002B7EE0E4040,474,Nyingma,950.0,513333209:445,wucha si,吾查寺,དབུ་ཚབ་དགོན,dbu tshab dgon,G3974,100.46667,32.11666
0101000020E6100000D0B359F5B9465840A4FCA4DAA7974040,475,Geluk,1940.0,632723206:211,yiwa nigu si,依哇尼姑寺,ཡུའུ་བ་ཇོ་གླིང,yu'u ba jo gling,G1KR2782,97.1051,33.18481
0101000020E6100000D7648D7A884856406D3997E2AAAA3D40,476,ShangpaKagyu,1021.0,542322100:542322104,xiongxiong si,雄雄寺,ཞོང་ཞོང་དགོན,zhong zhong dgon,G4783,89.13333,29.66667
0101000020E610000066666666661659408369183E22224040,477,Nyingma,1600.0,513333100:453,langjia qudeng,朗加曲登,གསེར་མཆོད་རྟེན་དགོན,gser mchod rten dgon,G3977,100.35,32.26667
0101000020E61000003ECBF3E0EE2E59409F6CCA15DEDD3F40,478,Nyingma,1536.0,513333101:450,jine si,金俄寺,དཀྱིལ་སྔོན་དགོན,dkyil sngon dgon,G3979,100.73333,31.86667
0101000020E610000034F44F70B14258409F5912A0A6A24040,479,Bon,,632723206:55,tudeng si,土登寺,ཐུབ་བསྟན་དགོན་པ,thub bstan dgon pa,G1KR2785,97.04208,33.27071
0101000020E610000066666666661659408369183E22224040,480,Nyingma,1686.0,513333100:451,dongga si,东嘎寺,གསེར་རྟ་དུང་དཀར་དགོན,gser rta dung dkar dgon,G3981,100.35,32.26667
0101000020E610000072FE2614221259409999999999194040,481,Nyingma,1775.0,513333206:426,yalong si,亚龙寺,ཡར་ལུང་དགོན,yar lung dgon,G3983,100.28333,32.2
0101000020E61000008D01D9EBDD4D58409A99999999593E40,1958,Geluk,,542127204:104,Bangda si,帮达寺,,,G1KR1255,97.21667,30.35
0101000020E61000009964E42CEC435840FD6A0E10CCB14040,482,KarmaKagyu,1150.0,632723207:47,,先宗寺,ཞེ་འཛོང་དགོན་པ,zhe 'dzong dgon pa,G1KR2794,97.06129,33.38904
0101000020E61000000B98C0ADBBFB5840D39FFD4811114040,483,Nyingma,1688.0,513333202:448,ranchong si,然充寺,རགས་བཀྲམ་དགོན,rags bkram dgon,G3987,99.93333,32.13334
0101000020E61000009B030473F41E5840410E4A9869174040,484,DrigungKagyu,1791.0,632725200:194,dasuogai si,达索改寺,ཏ་ཟོ་ཀེ་དགོན་པ,ta zo ke dgon pa,G1KR2800,96.48367,32.18291
0101000020E6100000DEA63FFB91165740BEA4315A47653C40,485,DrukpaKagyu,1350.0,542231101:542231107,chawu si,扎果寺,གཉལ་དྲེའུ་ལྷས་དགོན,gnyal dre'u lhas dgon,G48,92.35266,28.39562
0101000020E61000009AAC510FD128584037E0F3C308314040,486,NedoKagyu,1680.0,632725203:19,,当卡乃多寺,ཁྲ་འོད་བདེ་ཆེན་ཉི་གླིང,khra 'od bde chen nyi gling,G1KR2819,96.63776,32.38308
0101000020E610000072FE261422B258406566666666A63F40,487,KarmaKagyu,1727.0,513330203:133,babang si,八帮寺,དཔལ་སྤུངས་དགོན་པ,dpal spungs dgon pa,G36,98.78333,31.65
0101000020E610000014ED2AA4FC0458405778978BF8364040,488,KarmaKagyu,1821.0,632725204:173,,乃艾寺,ནེ་གེ་དགེ་དགོན་པ,ne ge dge dgon pa,G1KR2823,96.07792,32.42946
0101000020E61000003333333333D358403B0664AF77373E40,600,Nyingma,,513335212:82,zhaga si,扎呷寺,རྡོར་དགེ་དགོན,rdor dge dgon,G4014,99.3,30.21667
0101000020E6100000C585032159BE5940020EA14ACD5A4140,489,Geluk,1650.0,623001205:623027135,luxiu si,鲁修寺,ཀླུ་ཤོད་དགོན,klu shod dgon,G4823,102.97419,34.70939
0101000020E6100000B51A12F7580A5840A03715A930DE3F40,490,YelpaKagyu,1190.0,632725206:141,saizuoqiang si,赛佐强寺,གཟེ་རྫོགས་ཁྱམ་དགོན,gze rdzogs khyam dgon,G1KR2843,96.16168,31.86793
0101000020E61000006666666666A659401630815B77B74240,491,Geluk,1737.0,622326104:14,gucheng si,古城寺,སེར་རྩུད་དགོན,ser rtsud dgon,G4831,102.6,37.43333
0101000020E6100000F5B9DA8AFD335940CD920035B5004240,492,Bon,1913.0,632525205:387,wubu xiangka wenchang miao,吾布香卡文昌庙,བུ་ཕུར་ཞིང་ཁའི་ལྷ་ཁང,bu phur zhing kha'i lha khang,G1KR2613,100.81235,36.00553
0101000020E6100000713D0AD7A33059401500E31934044240,493,Geluk,1900.0,632525205:438,heluo si,合洛寺,སོག་པོ་དགོན,sog po dgon,G1KR2614,100.76,36.03284
0101000020E6100000CAA65CE15DF859402159C0046EE54040,494,Geluk,1799.0,623024207:623024131,duo'er ranzi si,多尔然子寺,རྡོ་རི་ར་རྩ་དགོན,rdo ri ra rtsa dgon,G4837,103.88073,33.79242
0101000020E6100000A88C7F9F713759406AA4A5F276044240,495,Geluk,,632525205:375,qiangcai si (typo: jiangcai si),姜才寺,སྐྱང་རྩེའི་སྒར་ཁ,skyang rtse'i sgar kha,G1KR2615,100.86631,36.03488
0101000020E61000007429AE2AFBFA5940B08F4E5DF9E04040,496,Sakya,1838.0,623024207:623024132,baigu si,白古寺,པེ་ཀོང་དགོན,pe kong dgon,G4838,103.92158,33.75761
0101000020E6100000703D0AD7A3D05840FFFFFFFFFF7F4140,497,Nyingma,1952.0,632621205:472,geri si,格日寺,གུ་རི་དགོན་པ,gu ri dgon pa,G1KR2621,99.26,35
0101000020E6100000AB3E575BB10B5A40A8E3310395F54040,498,Geluk,1680.0,623023204:623023121,heixia si,黑峡寺,གསེར་བོ་གཤོང་དགོན,gser bo gshong dgon,G4841,104.1827,33.91861
0101000020E6100000666666666626594048E17A14AE474040,499,Nyingma,1904.0,632622202:523,niangan si,念干寺,ཉ་རྒན་དགོན་པ,nya rgan dgon pa,G1KR2629,100.6,32.56
0101000020E6100000B46CAD2F12085840D45B035B25F83F40,500,Sakya,1175.0,632725206:140,zongda si,宗达寺,ཙོང་མདའ་དགོན,tsong mda' dgon,G1KR2860,96.12611,31.96932
0101000020E61000007EE36BCF2C6D59403AAFB14B54134040,501,Jonang,1924.0,513229210:5,Kangshan si,康山寺,བཞག་ཤོད་ཁང་གསར་དགོན,bzhag shod khang gsar dgon,G4255,101.70586,32.15101
0101000020E61000003D0AD7A3702D59409A99999999794040,502,Nyingma,1860.0,632622205:514,duo gama si,多尕麻寺,མདོ་འགབ་མ་དགོན་པ,mdo 'gab ma dgon pa,G1KR2635,100.71,32.95
0101000020E61000006DC0E78711005840A5BDC11726034040,503,BaromKagyu,1720.0,632725208:149,laqia si,拉洽寺,གླ་ཆབ་དགོན་པ,gla chab dgon pa,G1KR2864,96.00107,32.0246
0101000020E610000052B81E85EB3159403333333333734040,504,Nyingma,1937.0,632622206:511,jiangri tang si,江日堂寺,ལྕགས་རི་དགོན་པ,lcags ri dgon pa,G1KR2637,100.78,32.9
0101000020E61000003233333333335940E17A14AE47614040,505,Nyingma,1887.0,632622207:506,wuzha si,吾扎寺,བུ་རྩ་དགོན་པ,bu rtsa dgon pa,G1KR2638,100.8,32.76
0101000020E61000003233333333335940E17A14AE47614040,506,Nyingma,1849.0,632622207:508,zhaluo si,扎洛寺,བཀྲ་ལོ་དགོན་པ,bkra lo dgon pa,G1KR2640,100.8,32.76
0101000020E6100000AD174339D1E2564033BF9A0304333D40,507,Nyingma,1450.0,542222200:542222120,,桑阿曲廓林寺,,,G2CN10831,91.54402,29.19928
0101000020E6100000EC51B81E853B5940D7A3703D0A574040,508,Nyingma,1930.0,632622209:501,dengta si,灯塔寺,དྷི་མདའ་དགོན་བདེ་ཆེན་ཆོས་གླིང,dhi mda' dgon bde chen chos gling,G1KR2645,100.93,32.68
0101000020E6100000EC51B81E850B59403333333333134140,509,Jonang,1983.0,632623205:490,longge si,龙格寺,ལུང་དགེ་ཟི,lung dge zi,G1KR2653,100.18,34.15
0101000020E6100000058BC3995F0B5840850838842A894140,510,Nyingma,1981.0,632726204:203,maduo zongjiao huodong dian,麻多宗教活动点,རྨ་སྟོད་ཚོགས་ར,rma stod tshogs ra,G1KR2895,96.17771,35.07161
0101000020E610000052B81E85EB315940D7A3703D0AF74040,511,Jonang,1734.0,632623207:484,zhaxi qulang si,扎西曲朗寺,བཀྲ་ཤིས་ཆོས་གླིང,bkra shis chos gling,G1KR2655,100.78,33.93
0101000020E6100000E622BE13B36E59405C035B2558E44040,512,Nyingma,1850.0,623025203:623025106,awancang ningma si,阿万仓宁玛寺,ཝ་བན་ཚང་རྙིང་མ་དགོན,wa ban tshang rnying ma dgon,G4863,101.72968,33.78394
0101000020E61000000000000000C0584014AE47E17AD44040,513,Nyingma,1950.0,632624203:495,sang rima si,桑日麻寺,གསང་རུ་མ་དགོན་པ,gsang ru ma dgon pa,G1KR2657,99,33.66
0101000020E6100000B81E85EB51C858403233333333F34040,514,Nyingma,1890.0,632624204:496,tehetu si,特合土寺,སྟག་ཐོག་དགོན་པ,stag thog dgon pa,G1KR2658,99.13,33.9
0101000020E61000008D01D9EBDD4D58409A99999999593E40,1959,Kagyu,,542127204:105,Ge si,格寺,,,G1KR1256,97.21667,30.35
0101000020E6100000C2BB5CC4772E584042739D465AAA4240,515,Geluk,,632802204:448,saimudeng si,赛木登寺,བསམ་གཏན་དགོན་པ,bsam gtan dgon pa,G1KR2900,96.72606,37.33088
0101000020E610000023A12DE752DE5640F4F8BD4D7F6E3C40,516,Nyingma,1150.0,542227100:542227101,mowujue si,莫吾觉寺,སྨྲ་བོ་ལྕོག,smra bo lcog,G7,91.47381,28.43163
0101000020E6100000D50968226CBA59409CE1067C7E744140,517,Geluk,1650.0,623001003:623027132,qiaodan xia'er si,乔典夏尔寺,མཆོད་རྟེན་ཤར་དགོན,mchod rten shar dgon,G4867,102.91285,34.91011
0101000020E6100000CDCCCCCCCCDC5840DA8F149161DD4040,518,Geluk # Nyingma,1911.0,632624205:476,,党项姆果寺,དྭངས་གཞུང་སྨུག་སྐར་ཆོས་སྒར,dwangs gzhung smug skar chos sgar,G1KR2664,99.45,33.72954
0101000020E61000003ECBF3E0EEFE56406D3997E2AAAA3E40,1654,Kagyu,,542421218:417,Gadeng si,嘎登寺,,,G1KR1664,91.98333,30.66667
0101000020E61000004AB54FC763C05640185B087250E23D40,519,Kadampa,1150.0,540121205:540121105,jiari si,加日寺,ལྕགས་རི་དགོན,lcags ri dgon,G4575,91.00609,29.88404
0101000020E610000000000000006059403333333333B34040,520,Nyingma,1777.0,632625200:535,douhelong si,斗合隆寺,སྟག་ལུང་དགོན,stag lung dgon,G1KR2669,101.5,33.4
0101000020E610000052B81E85EB415940A4703D0AD7E34040,521,Nyingma,1762.0,632625201:536,huanlong si,涣隆寺,དཔོན་ལུང་དགོན་པ,dpon lung dgon pa,G1KR2670,101.03,33.78
0101000020E6100000A4703D0AD72359403C0AD7A370DD4040,522,Nyingma,1877.0,632625202:537,chayang si,查洋寺,ཙ་ཡང་ཟི,tsa yang zi,G1KR2672,100.56,33.73
0101000020E6100000DEB06D51661F584068D0D03FC1094040,523,Geluk,1647.0,632725201:129,ganda si,甘达寺,ཀར་མདའ་དགོན,kar mda' dgon,G4275,96.49062,32.07621
0101000020E6100000EC51B81E853B5940A4703D0AD7C34040,524,Jonang,1849.0,632625203:531,jianmu si,尖姆寺,ལྕམ་སྒོན་པ,lcam sgon pa,G1KR2673,100.93,33.53
0101000020E61000000B98C0ADBB6B5740F92CCF83BB7B3F40,1665,Geluk,,542423200:438,,珠纳寺,,,G1KR1675,93.68333,31.48333
0101000020E61000004BC3F011317158406536C82423034240,525,Geluk,1780.0,632822101:452,,香日德寺,པཎ་ཆེན་ཞིང་སྡེ་དགོན་པ,paN chen zhing sde dgon pa,G1KR2908,97.76862,36.02451
0101000020E61000009A99999999295940E17A14AE47A14040,526,Nyingma,1836.0,632625204:526,dongzong si,东宗寺,སྡོང་རྫོང་དགོན་པ,sdong rdzong dgon pa,G1KR2676,100.65,33.26
0101000020E6100000A4703D0AD72359406666666666A64040,527,Nyingma,1948.0,632625205:527,longhere si,龙合热寺,གཡག་ར་ནག་སྒར,g.yag ra nag sgar,G1KR2677,100.56,33.3
0101000020E6100000B9AAECBB229058404E7FF62345104240,528,Geluk,1927.0,632822201:449,zhaxi qugang si,扎西曲岗寺,བཀྲ་ཤིས་ཆོས་སྒང་དགོན,bkra shis chos sgang dgon,G1KR2911,98.25212,36.12711
0101000020E61000002C4833164D2B5940E7E3DA5031B64040,529,Jonang,1865.0,632625205:533,wenta maqu ga'er si,温塔玛曲噶尔寺,བུབ་ཐ་མ་ཆོས་སྒར,bub tha ma chos sgar,G1KR2681,100.67658,33.42338
0101000020E61000009A99999999C958400AD7A3703D4A4140,530,Nyingma,,632626205:474,changma he zhangfang si,仓马河帐房寺,ཕྲང་དམར་ཆོས་སྒར,phrang dmar chos sgar,G1KR2686,99.15,34.58
0101000020E6100000F06DFAB31F4158406891ED7C3F814040,531,Sakya,1398.0,632721100:1,jiegu si,结古寺,སྐྱེ་རྒུའི་དོན་འགྲུབ་གླིང,skye rgu'i don 'grub gling,G1KR2688,97.01756,33.00975
0101000020E61000004030478FDF45584043C02154A9814040,532,KarmaKagyu,1400.0,632721100:5,,扎西格寺,བཀྲ་ཤིས་ལྷུན་དགེ་དགོན,bkra shis lhun dge dgon,G1KR2689,97.09177,33.01298
0101000020E61000007F87A2409FA05940965B5A0D89D34140,571,Geluk,1692.0,632128201:268,,夕昌寺,བསེ་ཆང་སྒར,bse chang sgar,G1KR2347,102.50972,35.65262
0101000020E610000049111956F14858405A9E077767814040,533,KarmaKagyu,1150.0,632721100:2,dangka si,当卡寺,དོམ་དཀར་དགོན,dom dkar dgon,G1KR2690,97.13973,33.01097
0101000020E6100000695721E527D958406D1CB1169F924240,534,Nyingma,,632823201:429,suhuzha si,苏乎扎寺,ཐེབ་རྒྱ་སྲབ་མཐའ་མའི་དགོན་པ,theb rgya srab mtha' ma'i dgon pa,G1KR2918,99.39306,37.14548
0101000020E61000005A2F8672A22F5840C6504EB4ABA04040,535,DrigungKagyu,1250.0,632721200:25,gala si,嘎拉寺,གར་དགོན་བདེ་ཆེན་གླིང,gar dgon bde chen gling,G1KR2696,96.74429,33.25524
0101000020E6100000C47C7901F6215940E2E47E87A2D04140,536,Nyingma,1921.0,632525202:373,tulu ekang,土鲁俄康,ཐུ་རོལ་སྔགས་ཁང,thu rol sngags khang,G1KR2599,100.53064,35.62996
0101000020E610000065A54929E8265940713D0AD7A3D04140,537,Geluk,,632525202:374,bianduo gaka,边多尕卡,སྤོས་མདུད་སྒར་ཁ,spos mdud sgar kha,G1KR2600,100.60792,35.63
0101000020E61000002F19C748F66E57403DD34B8C65323F40,1682,Bon,1697.0,542423209:437,gari si,嘎日寺,,,G1KR1692,93.733782,31.196862
0101000020E6100000F4673F5244645940D49FFD4811113F40,538,Nyingma,1875.0,513323204:27,dangling si,党岭寺,འོད་གསལ་བཤད་སྒྲུབ་གླིང,'od gsal bshad sgrub gling,G4047,101.56667,31.06667
0101000020E61000003A234A7B830F5940B84082E2C7CC4140,539,Geluk,,632525203:371,jubulong si,居布隆寺,ཅུ་པུར་མཚམས་ཁང,cu pur mtshams khang,G1KR2601,100.2424,35.59985
0101000020E61000003A234A7B830F5940B84082E2C7CC4140,540,Geluk,1917.0,632525203:386,dacang si,大仓寺,རྟ་ཚང་ཟི,rta tshang zi,G1KR2602,100.2424,35.59985
0101000020E6100000465F419AB16E59409947FE60E0714040,541,Jonang,1630.0,513231200:206,sega si,色嘎寺,བསྭེ་དགོན་པ,bswe dgon pa,G4910,101.72959,32.88966
0101000020E610000052B81E85EB815940512CB7B41AFE4140,542,Geluk,1689.0,632127101:604,jieshidang si,结什当寺,གྱེར་ཐང་རི་ཁྲོད,gyer thang ri khrod,G1KR2254,102.03,35.98519
0101000020E610000078E9263108905940965B5A0D89F34140,543,Nyingma,1730.0,632127102:227,ruosuo si,若索寺,ཨོ་བསཱ་དགོན་བཀྲ་ཤིས་ཆོས་གླིང,o basA dgon bkra shis chos gling,G1KR2258,102.2505,35.90262
0101000020E6100000A1F31ABB447B594057AD4CF8A50A4240,544,Nyingma,1644.0,632127200:233,,下多巴寺,ཞ་སྟོད་པ་ཟི,zha stod pa zi,G1KR2263,101.92607,36.08319
0101000020E6100000618907944D8D5940E813799274114240,545,Nyingma,1701.0,632127208:229,,香力胡拉寺,ཞང་ལིས་ཧོའུ་ལ་ཟི,zhang lis ho'u la zi,G1KR2288,102.20786,36.13637
0101000020E61000000AD7A3703D4A5440CCCCCCCCCC4C3E40,546,Geluk # Sakya,1650.0,542521100:53,xiepeilin si,协培林寺,བཤད་འཕེལ་གླིང,bshad 'phel gling,G2LS517,81.16,30.3
0101000020E610000029E8F692C6A45940EF0390DAC4194240,547,Geluk,1619.0,632122222:35,long he si,龙合寺,ཐང་རིང་དགོན་པ,thang ring dgon pa,G474,102.57462,36.20132
0101000020E61000001F85EB51B87E594014AE47E17A144240,548,Nyingma,1690.0,632127205:237,akala si,阿卡拉寺,ཨ་ཁ་ལ་དགོན་པ,a kha la dgon pa,G1KR2280,101.98,36.16
0101000020E61000002E043928618859407AFCDEA63F1B4240,549,Nyingma,1393.0,632127207:121,qutan tianguan si,瞿昙天官寺,གྲོ་ཚང་སྔགས་ཁང,gro tshang sngags khang,G1KR2286,102.13093,36.21288
0101000020E6100000B01BB62DCA8A59406E0D6C95600D4240,550,Nyingma,1750.0,632127208:231,keque si,科却寺,ཀི་ཆོས་ཟོ,ki chos zo,G1KR2287,102.16859,36.10451
0101000020E61000007C224F92AEA55940FCE3BD6A65064240,551,Nyingma,1850.0,632127216:215,danma si,旦么寺,དན་མེད་ཟི,dan med zi,G1KR2322,102.58878,36.04997
0101000020E6100000E4DA5031CE8D59405EBA490C020F4240,552,Nyingma,1368.0,632127209:230,gashijia si,加吉寺,གར་ཇ་ཟི,gar ja zi,G1KR2290,102.21571,36.11725
0101000020E6100000D482177D055359405CC98E8D40DC4040,553,Nyingma,1650.0,623025204:623025110,muxihe si,木西合寺,རྨུར་བྱེ་དགོན,rmur bye dgon,G4848,101.29721,33.72072
0101000020E6100000F8C264AA60485940B020CD5834314040,554,Jonang,1869.0,513230208:118,Ri suo si,日索寺,འཛི་སྲིབ་བཀྲ་ཤིས་ཆོས་སྡེ,'dzi srib bkra shis chos sde,G4938,101.1309,32.38441
0101000020E61000000000000000A059402A52616C21084240,555,Bon,900.0,632127215:207,,下什塘苯教寺,ཤར་ཐང་ཟི,shar thang zi,G1KR2308,102.5,36.06352
0101000020E61000000000000000A059402A52616C21084240,556,Bon,,632127215:642,,下什塘寺,ཤ་སྟེངས་བོན་དགོན,sha stengs bon dgon,G1KR2309,102.5,36.06352
0101000020E6100000CDCCCCCCCC9C5940CCCCCCCCCC0C4240,557,Nyingma,1790.0,632127215:220,zhaxi zhuang si,扎西庄寺,བཀྲ་ཤིས་སྡེ་བ་དགོན,bkra shis sde ba dgon,G1KR2311,102.45,36.1
0101000020E61000001BF5108DEE9E5940CCCCCCCCCC0C4240,558,Geluk,1580.0,632127215:192,anguan si,安关寺,ཨ་མགོན་དགའ་རི་ཁྲོད,a mgon dga' ri khrod,G1KR2313,102.48331,36.1
0101000020E610000069BC7493189E5940CB67791EDC0D4240,559,Bon,,632127215:208,sangjia wuju benjiaosi,桑加吾具苯教寺,སངས་རྒྱལ་པོ་བཅུ་ཟི,sangs rgyal po bcu zi,G1KR2314,102.47025,36.10828
0101000020E6100000289B7285779758404963B48EAA2A4040,561,Nyingma,18uu,513330209:130,rongge si,绒戈寺,རྫོང་མགོ་དགོན,rdzong mgo dgon,G2CN10949,98.36667,32.33333
0101000020E6100000787FBC57AD2459409ACE4E0647A14140,562,Nyingma,1935.0,632522350:399,digan si,迪干寺,ཏོས་རྒན་ནག་སྒར,tos rgan nag sgar,G1KR2515,100.57308,35.25998
0101000020E61000009C50888043EA5640ECF0D7648D023D40,563,Geluk,1550.0,542225100:542225106,riwu deqin si,日乌德钦寺,རི་བོ་བདེ་ཆེན,ri bo bde chen,G399,91.66037,29.00997
0101000020E610000088F4DBD781A15940F0BF95ECD8084240,564,Bon,900.0,632127216:206,,多西庄苯教寺,དོར་ཞི་ཟི,dor zhi zi,G1KR2323,102.52355,36.06912
0101000020E610000088F4DBD781A15940F0BF95ECD8084240,565,Bon,,632127216:641,,多西寺,རྡོ་གཞིས་བོན་དགོན,rdo gzhis bon dgon,G1KR2324,102.52355,36.06912
0101000020E610000072FE2614221259409999999999194040,566,Nyingma,1925.0,513333206:425,zhuri wa,竹日寺,འབྲོང་རི་དགོན,'brong ri dgon,G3991,100.28333,32.2
0101000020E61000002254A9D903A359405743E21E4B0B4240,567,Nyingma,1730.0,632127216:212,awuju si,阿吾具寺,ཨ་ཨུ་ཅུལ་ཟི,a u cul zi,G1KR2326,102.54711,36.08823
0101000020E61000003333333333035940E3FC4D2844644040,568,Nyingma,1871.0,513333204:433,dazhang si,大章寺,བརྡ་ཚང་དགོན,brda tshang dgon,G3992,100.05,32.78333
0101000020E61000002254A9D903A359405743E21E4B0B4240,569,Nyingma,1810.0,632127216:213,jianke si,尖科寺,ཅན་འཁོར་ཟོ,can 'khor zo,G1KR2327,102.54711,36.08823
0101000020E61000003ECBF3E0EEEE5840D39FFD4811514040,570,Nyingma,1850.0,513333200:442,kangma langduo si,康玛朗多寺,ཁང་དམར་ན་མདོ་དགོན,khang dmar na mdo dgon,G3993,99.73333,32.63334
0101000020E610000057B26323101B5740C58A1A4CC3683D40,572,Kagyu,1350.0,542224202:542224104,sanglin si,桑林寺,,,G4CZ1581,92.42286,29.40923
0101000020E61000001EA2D11DC4A459407B14AE47E1DA4140,573,Geluk,1690.0,632128201:269,,夕昌修行院,བསེ་ཆང་སྒོམ་གྲྭ,bse chang sgom grwa,G1KR2352,102.57447,35.71
0101000020E6100000BBD05CA791945940E544BB0A29DB4140,574,Bon,,632128207:643,wang cangma benjiao huodong dian,王仓麻本教活动点,བོན་ཚང་མའི་བོན་སྒར,bon tshang ma'i bon sgar,G1KR2367,102.32139,35.71219
0101000020E61000004963B48EAA8E59400CEA5BE674254240,575,Geluk,1619.0,632123217:87,yaocaotai si,药草台寺,གྲོ་ཚང་དགོན,gro tshang dgon,G874,102.22916,36.29263
