id,name,lat,long,located in
G339,reb gong khyung dgon/,,,reb gong /
G1KR1699,rdo rting dgon/; 多登寺,31.20633,94.19508,Biru county; 'bri ru rdzong /; 比如县
G1KR1462,加里寺; rgya ri dgon/,28.78735,92.09557,chu gsum rdzong /; Chusum county; 曲松县
G1060,shangs 'bras spungs/,,,
G2921,kha shul dgon/,,,brag skas chus (spo bo rdzong); 波密县; spo bo rdzong /; Pome County
G314,dan tig dgon/; 丹笛寺,35.88778,102.5,kha ba drug gi dgon pa/; 化隆回族自治县; ba yan rdzong /
G3366,gzhong pa lha chu dgon/; 雄巴拉曲寺,29.64005,90.93258,stod lung bde chen rdzong /; Tolung Dechen County; 堆龙德庆县; se ma grong tsho (stod lung bde chen rdzong)
G8LS12773,nyi ma lung dgon/,,,bum thang /
G1PD108531,khang dmar dgon/,,,马尔康县; Barkham County; 'bar khams rdzong /
G1KR2068,a mchog sngags grwa/; 阿木去乎密宗院,34.80689,102.71378,bsang chu rdzong /; 夏河县
G1KR2288,zhang lis ho'u la zi/; 香力胡拉寺,36.13637,102.20786,化隆回族自治县; ba yan rdzong /
G2586,代巴寺; dad pa dgon/,32.67677,96.61373,yul shul rdzong /; 玉树县
G1KR619,格嘎寺; dge 'gab dgon/,33.23333,98.06667,ser shul rdzong /; Seshul county; 石渠县
G1KR2610,mkhar sdon sgar kha/; 归化寺,35.8828,101.0082,贵南县; mang ra rdzong /
G1KR1739,贡欧寺,31.65,94.3,Sok county; sog rdzong /; 索县
G1KR2024,bye gshong ser sde/; 木西合新寺,34.26186,101.10738,rma chu rdzong /; 玛曲县
G1723,dbang mda' dgon/; Wangda Gon Tubten Chokorling,,,mdo gong ma zhang /
G1KR1083,乐曲寺,30.88333,98.25,贡觉县; Gongjo County; go 'jo rdzong /
G1KR141,bde chen dgon/; 斯跃武寺,31.75374,101.42146,'dzam thang rdzong /; 壤塘县
G2922,seng+ge gnam rdzong /,,,brag skas chus (spo bo rdzong); 波密县; spo bo rdzong /; Pome County
G1KR328,黑金寺; a dur dgon/,29.83333,101.11667,nyag chu rdzong /; 雅江县; Nyakchu county
G1KR1879,白玛卫林寺,29.76667,95.31667,Metok county; me tog rdzong /; 墨脱县
G1724,tsha skor dgon pa/,,,mtsho nag zhang /
G1857,stong che rgya thang lha khang /,,,khri ka rdzong /; 贵德县; 同仁县; Rebkong County; reb gong rdzong /
G4048,bkra shis chos gling dgon/,,,rong brag rdzong /; Rongdrak county; 丹巴县
G1KR1738,琼扩寺,31.65,94.3,Sok county; sog rdzong /; 索县
G1KR1179,查仲德钦绕吉林寺; bde chen rab rgyas gling /,31.6,95.08334,steng chen rdzong /; Tengchen County; 丁青县
G75,'on nges gsang dar rgyas gling /,,,sne gdong rdzong /; Nedong County; 乃东县; 'on/
G1KG17132,khams rdor brag dgon/,,,sde dge rdzong /; 德格县; Derge County; lhun grub rdzong /; 林周县; Lhundrub county
G1802,果芒寺; Gomang Gon; sgo mang dgon/,32.76,100.8,班玛县; pad+ma rdzong /; Pema county; yar thang zhang /
G1KR1082,羊寺,30.88333,98.25,贡觉县; Gongjo County; go 'jo rdzong /
G511,sba mo chos sdings/,,,
G1KR2579,仍果俄康; rdzong 'go'i sngags khang /,36.10997,101.28885,khri ka rdzong /; 贵德县
G1KR2638,bu rtsa dgon pa/; 吾扎寺,32.76,100.8,班玛县; pad+ma rdzong /; Pema county
G777,a mo ri mo/,,,spungs thang bde ba can/; punakha
G4492,郎依寺; sna steng dgon/,32.8135,103.64088,zung chu rdzong /; 松潘县; shar khog
G1597,nor khog dgon pa/; 洛古寺,30.65,100.26667,nyag rong rdzong /; 新龙县; Nyakrong county
G3814,rgya shod dgon/,,,dpal yul rdzong /; Palyul county; 白玉县
G208,phug chung dgon pa/; Pugchung Gonpa Mishi Dorje Dzong,,,
G3948,rma mgrin dgon/,,,ser shul rdzong /; Seshul county; 石渠县
G3920,mtha' dmar dgon/; 塘麻寺,30.5,100.1,li thang rdzong /; 理塘县; Litang county
G1KR994,泽尼寺,31.56667,97.13333,昌都县; chab mdo rdzong /; Chamdo county
G1KR150,grub 'dzar dgon/; 周扎寺,31.79796,101.07826,'dzam thang rdzong /; 壤塘县
G72,'ba' tsag dgon/,,,
G507,dga' ldan theg chen gling /; Gandantegchenlin khiid,47.92,106.88,Ulaanbaatar; 乌兰巴托; u lan dpa' thul/; Улаанбаатар
G1KR1280,夏拉寺,29.41667,97.75,左贡县; Zogang County; mdzo sgang rdzong /
G1KR1081,索龙寺,30.88333,98.25,贡觉县; Gongjo County; go 'jo rdzong /
G1854,加卜查寺; Gyabtsa Gon Tengyeling; rgyab tsha dgon/,35.88335,101.50848,khri ka rdzong /; 贵德县
G1912,托勒寺; tho le dgon/,35.92132,100.66474,贵南县; mang ra rdzong /
G2920,rdzong leb dgon/,,,brag skas chus (spo bo rdzong); 波密县; spo bo rdzong /; Pome County
G3815,brag dmar dbang chen gling dgon/,,,dpal yul rdzong /; Palyul county; 白玉县
G4179,dar rgyas gling /,,,yar klungs/
G1KR1159,巴合寺; sbra ho dgon/,31.22718,95.925599,steng chen rdzong /; Tengchen County; 丁青县
G1KR2917,dga' ldan chos gling lha khang /; 格丹奇林拉康,37.13626,99.15042,天峻县; them chen rdzong /
G1KR995,跟塘寺; ging thang dgon/,31.56667,97.13333,昌都县; chab mdo rdzong /; Chamdo county
G1DOMM0005,nor bu gling kha/; Norovlin,47.88,106.9,Ulaanbaatar; 乌兰巴托; u lan dpa' thul/; Улаанбаатар
G1KR1080,达登寺,30.88333,98.25,贡觉县; Gongjo County; go 'jo rdzong /
G3285,rab rgyas dgon/,,,snye mo rdzong /; 尼木县; Nyemo county; gzhu phu shang (snye mo rdzong)
G1KR59,？; bde chen thos bsam mgon po gling /,32.05796,102.99941,khro chu rdzong /; 黑水县
G1KR1112,嘎久寺,30.5,98.9,贡觉县; Gongjo County; go 'jo rdzong /
G2CN10831,gsang sngags chos 'khor gling /; 桑阿曲廓林寺,29.19928,91.54402,grwa nang rdzong /; Dranang county; 扎囊县
G1KR403,g.yung drung dgon/; 英珠能寺,31.65,99.83334,dkar mdzes rdzong /; Kartse County; 甘孜县
G244,Bodong E Gonpa; 博东俄寺; bo dong e dgon pa/,29.3,88.2,lha rtse rdzong /; 拉孜县; Lhatse county
G1KR2308,下什塘苯教寺; shar thang zi/,36.06352,102.5,化隆回族自治县; ba yan rdzong /
G1KR54,brag nag dgon/; 大寨寺,31.44526,102.50254,btsan lha rdzong /; 小金县
G4223,stag rtse grwa tshang /,,,byar yul/
G1KR718,久如古念拉康; co ro dge bsnyen lha khang /,29.03333,99.88333,cha phreng rdzong /; 乡城县
G1KR681,萨迦寺; li thang sa skya dgon/,29.96667,100.2,li thang rdzong /; 理塘县; Litang county
G3923,蒙沙寺; 'bum gsar dgon/,33.01667,98.15,ser shul rdzong /; Seshul county; 石渠县
G11,rdo rje brag; 多吉扎寺; Dorje Drak Ewam Chogar,29.35536,91.13459,gong dkar rdzong /; Gongkar county; 贡嘎县
G1KR2382,百户寺; pe hu'u dgon/,37.72458,100.75615,chu len rdzong /; 祁连县
G1PD96169,东麻昂寺; ka mdo gdong dmar sna dgon/,35.88,102.29893,化隆回族自治县; ba yan rdzong /
G1KR2629,nya rgan dgon pa/; 念干寺,32.56,100.6,班玛县; pad+ma rdzong /; Pema county
G1KR1676,朱德寺,31.48333,93.68333,Biru county; 'bri ru rdzong /; 比如县
G3977,朗加曲登; gser mchod rten dgon/,32.26667,100.35,gser thar rdzong /; 色达县; Serta county
G1KR1887,ri lnga dgon/; 日昂寺,29.61667,96.28333,波密县; spo bo rdzong /; Pome County; sum 'dzoms chus (spo bo rdzong)
G1KR2563,拉扎寺; rwa bza' grwa tshang /,35.94163,101.47879,khri ka rdzong /; 贵德县
G3158,'gar rtse dgon/,,,
G514,dpa' ris yar lung dgon/,,,
G4130,ka bzhi dgon/; 高尔卡寺,30.48333,101.48333,lcags zam rdzong /; 泸定县
G1KR161,spang thog dgon/; 棒托寺,32.42036,101.06396,'dzam thang rdzong /; 壤塘县
G1KR1219,东冲寺,30.81667,97.63333,brag g.yab rdzong /; 察雅县; Drakyap County
G3CN1561,shes rab gling /; 智慧林寺; Sherabling,32.030651,76.412237,bir/; Bir
G3987,rags bkram dgon/; 然充寺,32.13334,99.93333,gser thar rdzong /; 色达县; Serta county
G1KR1296,格各可秀寺,29.45,98.28333,smar khams rdzong /; 芒康县; Markham county
G1KR1113,朗日寺,30.5,98.9,贡觉县; Gongjo County; go 'jo rdzong /
G1728,'bos lam dgon/,,,玛沁县; rma chen rdzong /; khra ma ho zhang /
G1KR719,dbu lo lha khang /; 乌鲁拉康,29.03333,99.88333,cha phreng rdzong /; 乡城县
G1KR2309,下什塘寺; sha stengs bon dgon/,36.06352,102.5,化隆回族自治县; ba yan rdzong /
G3828,rdzong shod dgon/; 仲学寺,31.36667,99.1,rdzong shod bde gshegs 'dus pa'i gnas/; dpal yul rdzong /; Palyul county; 白玉县
G2815,tshong 'dus grwa tshang /; 丛堆寺,29.23605,91.39941,grwa nang rdzong /; Dranang county; 扎囊县
G1KR1287,ri sna dgon/; 日乃寺,29.637822,97.532997,左贡县; Zogang County; mdzo sgang rdzong /
G1KR997,khre dgon/; 车寺,31.56667,97.13333,昌都县; chab mdo rdzong /; Chamdo county
G3461,bde mo thang dgon/,,,stag rtse rdzong /; 达孜县; Taktse county; 'chums/; mchums mda' shang (stag rtse rdzong)
G1KR1675,珠纳寺,31.48333,93.68333,Biru county; 'bri ru rdzong /; 比如县
G1KR2564,下兰角俄康; lan ju zhol ma'i sngags khang /,35.94163,101.47879,khri ka rdzong /; 贵德县
G1KR1698,klu mkhar dgon/; 鲁卡寺,31.188049,94.086032,Biru county; 'bri ru rdzong /; 比如县
G1PD96138,le rgan dgon pa/; 列干寺,35.84734,102.18,化隆回族自治县; ba yan rdzong /
G515,ku se gser ljongs/,,,sde dge
G1KR998,rdo phu dgon/; 多普寺,31.56667,97.13333,昌都县; chab mdo rdzong /; Chamdo county
G2923,dpa' bo ri khrod/,,,brag skas chus (spo bo rdzong); 波密县; spo bo rdzong /; Pome County
G4124,杜呷寺; gdugs dkar dgon/,30.53333,101.08334,rta'u rdzong /; 道孚县; Tawu county
G1KR137,dza 'go dgon/; 咱寺,32.22169,101.61107,马尔康县; Barkham County; 'bar khams rdzong /
G1KR2324,rdo gzhis bon dgon/; 多西寺,36.06912,102.52355,化隆回族自治县; ba yan rdzong /
G4221,byar skyid sbug,,,byar yul/
G2GS1304,休登寺; shug steng dgon/,29.48333,96.76667,八宿县; Pashod County; dpa' shod rdzong /
G4354,tsha gan pe shing dgon/,,,mdzod dge rdzong /; 若尔盖县
G1KR1297,尼丁寺,29.45,98.28333,smar khams rdzong /; 芒康县; Markham county
G1KR1210,昆达寺,30.56667,97.96667,brag g.yab rdzong /; 察雅县; Drakyap County
G1KR1863,日嘎寺,30.05,92.86667,kong po rgya mda' rdzong /; 工布江达县; Kongpo Gyamda County
G2KR39,bkra shis chos 'khor gling /; Dashchoinkhorlin khiid; Dashchoinkhorlin khiid,48.00795,106.93,Ulaanbaatar; 乌兰巴托; u lan dpa' thul/; Улаанбаатар
G2LS531,bya skyibs dgon/; 嘉棋寺,30.78333,81.41666,spu hreng rdzong /; Purang county; 普兰县
G1KR1111,巴日寺,30.5,98.9,贡觉县; Gongjo County; go 'jo rdzong /
G1KR60,bde chen gling dgon/; 德青郎寺,32.05796,103.01441,khro chu rdzong /; 黑水县
G2924,ngar sna sku sha dgon/,,,brag skas chus (spo bo rdzong); 波密县; spo bo rdzong /; Pome County
G3980,'phrul steng dgon/; 迟当寺,31.93333,100.7,gser thar rdzong /; 色达县; Serta county
G7,smra bo lcog; 莫吾觉寺,28.43163,91.47381,mtsho smad rdzong /; 措美县; Tsome county
G4825,唐尕昂扎西寺; thang dkar nang bkra shis dgon/,35.16187,102.88161,bsang chu rdzong /; 夏河县
G1KR1298,仁青林寺,29.45,98.28333,smar khams rdzong /; 芒康县; Markham county
G1KR85,g.yung drung dgon/; 阳日岗寺,31.87719,102.46987,马尔康县; Barkham County; 'bar khams rdzong /
G4471,张家寺; tha yan chi dgon pa/,37.14274,101.56408,大通县; gser khog rdzong /
G1KR2836,yib bis ri dgon pa/; 要毕日寺,32.30812,95.479,nang chen rdzong /; 囊谦县; Nangchen County
G1726,mkhar skor dgon/,,,mdzo rgan rwa bar zhang /
G1KR2344,旦麻尼姑寺; 'dab ma'i jo mo dgon pa/,35.64999,102.60583,循化县; ya rdzi rdzong /
G1KR1677,曲林寺,31.48333,93.68333,Biru county; 'bri ru rdzong /; 比如县
G1874,却毛寺; stong che khyung mo dgon/,35.91284,101.38,khri ka rdzong /; 贵德县
G4100,thang sgang dgon pa/; 唐岗寺,29.61667,101.05,nyag chu rdzong /; 雅江县; Nyakchu county
G1KR2631,恩达寺; we mda' dgon pa/,33.08,100.6,班玛县; pad+ma rdzong /; Pema county
G4565,孜修东寺; rtse zhol dgon/,30.08169,91.76149,mal gro gung dkar rdzong /; Medro Gongkar County; 墨竹工卡县
G2080,ra khyim dgon/,,,mal gro gung dkar rdzong /; Medro Gongkar County; 墨竹工卡县; rtsa zhol shang (mal gro gung dkar rdzong)
G3862,曲岭寺; chos gling dgon/,28.83333,100.46667,'dab pa rdzong /; 稻城县; Dabpa county
G1KR1216,达热寺,30.81667,97.63333,brag g.yab rdzong /; 察雅县; Drakyap County
G2610,sku 'bum dgon/,,,
G1KR2375,加多寺; rgya tog dgon/,37.33,101.86128,门源回族自治县; sems nyid rdzong /
G4060,gling chen dgon/; 宁青寺,30.78333,101.75,rong brag rdzong /; Rongdrak county; 丹巴县
G1PD96025,khwa ta'i kha'i dgon pa/; 卡地喀寺,35.93296,102.76,民和县; bka' ma log rdzong /
G2DOMM0032,Mongol unshlagat Buyan arvijikhui khiid,47.92,106.88,Ulaanbaatar; 乌兰巴托; u lan dpa' thul/; Улаанбаатар
G3942,'dan shug ra dgon pa/,,,ser shul rdzong /; Seshul county; 石渠县
G2077,nyi ma lcang rwa dgon/; 尼玛江热寺,30.0102,91.94788,mal gro gung dkar rdzong /; Medro Gongkar County; 墨竹工卡县; nyi ma lcang ra shang (mal gro gung dkar rdzong)
G353,金龙寺; skyid lung dgon/,31.23333,101.51667,rong brag rdzong /; Rongdrak county; 丹巴县
G2CN11087,mdo steng lcags mo dgon/,,,dkar mdzes rdzong /; Kartse County; 甘孜县
G457,gnas rnying dgon pa/; Nenying; 乃宁寺,28.81667,89.65,khang dmar rdzong /; 康马县; Kangmar county
G1KR2686,仓马河帐房寺; phrang dmar chos sgar/,34.58,99.15,玛沁县; rma chen rdzong /
G2081,sga dam dgon/,,,mal gro gung dkar rdzong /; Medro Gongkar County; 墨竹工卡县
G2526,ri ngar bkra shis dge 'phel dgon/,35.39524,102.40276,rgan gya/; bsang chu rdzong /; 夏河县; rgan rgya ri ngar/
G2647,肖甫寺; shor phu dgon/,32.74345,96.14986,nang chen rdzong /; 囊谦县; Nangchen County
G4059,布科寺; ya ra dgon/,30.91667,101.8,rong brag rdzong /; Rongdrak county; 丹巴县
G2744,Tangsar Gar; thang sar sgar/,,,Gannan Prefecture; kan lho rang skyong khul/; 甘南州
G2611,嘎日寺; mgar dgon/,,,nang chen rdzong /; 囊谦县; Nangchen County
G1KR1320,多强寺,30.06667,98.11667,smar khams rdzong /; 芒康县; Markham county
G4173,rgyas sman mig bzhi/,,,'phyongs rgyas khul/
G4040,gsang sngags bstan rgyas gling /,,,rong brag rdzong /; Rongdrak county; 丹巴县
G1KR1229,泽琼寺,30.56667,97.78333,brag g.yab rdzong /; 察雅县; Drakyap County
G1KR121,kam myos dgon/; 干木鸟寺,32.21367,101.96704,马尔康县; Barkham County; 'bar khams rdzong /
G1KR809,则母寺,29.15,99.03333,Dechen County; 德钦县; bde chen rdzong /
G1KG116098,mdo sde brag dgon pa/; dodedrak monastery,27.514285,89.611616,thim phu/; Thimphu
G2CN11146,dge rgyas mtha' brtan gling /,28.49181,83.064836,bal yul/; 尼泊尔; nepal
G1KR1565,'dar grong mo che/; 达尔查木曲寺,29.08333,87.63333,lha rtse rdzong /; 拉孜县; Lhatse county
G1847,色尔加俄康; se kyA sngags khang /,35.94506,101.5,khri ka rdzong /; 贵德县
G1KR1238,则松寺,30.23333,98,brag g.yab rdzong /; 察雅县; Drakyap County
G1KR1870,巴嘎寺,30.21667,93.11667,kong po rgya mda' rdzong /; 工布江达县; Kongpo Gyamda County
G1661,ri spun dgon/; 日班寺,31.63333,99,sde dge rdzong /; 德格县; Derge County
G4484,班固寺; ban rgud dgon/,37.28451,101.9419,门源回族自治县; sems nyid rdzong /
G822,spangs dgon o rgyan gu ru/,,,
G1KR1218,龙拉寺,30.81667,97.63333,brag g.yab rdzong /; 察雅县; Drakyap County
G1KR2748,ru ba bar ma/; 日哇多玛寺,32.48836,95.2984,杂多县; rdza stod rdzong /
G4172,rgyas sman skyid sbug,,,'phyongs rgyas khul/
G1KR1228,沙迦寺,30.56667,97.78333,brag g.yab rdzong /; 察雅县; Drakyap County
G2DOMM0035,Gandandarjaalin datsan; dga' ldan dar rgyas gling grwa tshang /,47.92,106.89,Ulaanbaatar; 乌兰巴托; u lan dpa' thul/; Улаанбаатар
G527,sman sdong dgon/; 曼冬寺,31.02,85.17,mtsho chen rdzong /; 措勤县; tshi phri chus (mtsho chen rdzong)
G3738,生根寺; mi nyag seng+ge dgon/,30.31667,101.48333,mi nyag ring mo/; 康定县; Dardo county; dar mdo rdzong /
G4702,te'u bur sgom khang /,,,
G1KR2092,却康寺; mchod khang zi/,36.35945,101.81,湟中县; sku 'bum rdzong /
G3823,永乐寺; a rig yang le dgon/,31.36667,99.1,dpal yul rdzong /; Palyul county; 白玉县
G4649,恰科日瓜什则寺; cha skor mgar rtse dgon/,35.08,101.6,rtse khog rdzong /; 泽库县
G1573,bon po dgon/; 英珠能寺,31.65,99.83334,dkar mdzes rdzong /; Kartse County; 甘孜县
G4171,ri bo khron stengs dpal sdings/,,,
G1901,lung mtshe sngags khang /; 龙才寺,36.09817,100.91389,共和县; chab cha rdzong /
G3637,rmog rtsa dgon/,,,"Chamdo City (Prefecture level, 2014); chab mdo sa khul/; 昌都市 (地区级市，2014)"
G2439,brag sna dgon/,,,chu shur rdzong /; 曲水县; Chushur County; mnyes thang shang (chu shur rdzong)
G3860,yang steng dgon/; 洋登寺,29.03333,100.28333,yang stengs/; 'dab pa rdzong /; 稻城县; Dabpa county
G1KR1217,帮嘎寺,30.81667,97.63333,brag g.yab rdzong /; 察雅县; Drakyap County
G1KR2676,东宗寺; sdong rdzong dgon pa/,33.26,100.65,久治县; gcig sgril rdzong /
G2875,rgyal phu steng 'gro ri khrod/; Gyalpu Tengdro Ritro,,,
G1PD96099,dgon pa zi/; 官巴寺,36.3833,101.99294,平安县; bde khams rdzong /
G1KR1227,尊桑寺,30.56667,97.78333,brag g.yab rdzong /; 察雅县; Drakyap County
G2DOMM0034,dga' ldan chos 'khor gling /; Gandanchoinkhorlin,47.92,106.89,Ulaanbaatar; 乌兰巴托; u lan dpa' thul/; Улаанбаатар
G2KG208037,menrikha temple; sman ri kha/,,,
G1KR1983,gong smad dge 'phel gling /; 贡美格培寺,33.4808,104.52521,舟曲县; 'brug chu rdzong /
G3818,打科寺; mda' kho dgon/,31.21667,98.83334,dpal yul rdzong /; Palyul county; 白玉县
G1KR1763,当琼寺,31.35,86.76667,Nyima county; nyi ma rdzong /; 尼玛县
G1KR214,索藏格寺; sog tshang dgon/,33.47423,102.47345,mdzod dge rdzong /; 若尔盖县
G4701,kha rgya sgar/,,,
G00AG01622,se bkra bzang dgon/; 扎桑寺,29.41667,86.88333,ngam ring rdzong /; Ngamring county; 昂仁县
G1922,玉隆寺; g.yu lung brag dkar dgon/,35.89912,99.9565,兴海县; rtsi gor thang rdzong /
G1KR2402,bde chen ri khrod/; 满丛德庆寺,35.4545,102.06116,同仁县; Rebkong County; reb gong rdzong /
G4866,chu bar dgon/; 楚哇寺,33.92956,103.94851,舟曲县; 'brug chu rdzong /; chu bar zhang ('brug chu rdzong)
G1KR2065,sgyis tshang sgar/; 吉仓寺,34.71084,102.76678,bsang chu rdzong /; 夏河县
G3812,Yachen monastery; ya chen dgon/; 亚青寺,,,dpal yul rdzong /; Palyul county; 白玉县
G2614,乜也寺; lho mi g.yel dgon/,,,nang chen rdzong /; 囊谦县; Nangchen County
G1KR1226,卓修寺,30.56667,97.78333,brag g.yab rdzong /; 察雅县; Drakyap County
G447,mnga' ris grwa tshang /; 阿里扎仓寺,29.28667,91.83596,sne gdong rdzong /; Nedong County; 乃东县; 'on/
G1KR313,san si (dgon); ？？,28.91667,101.83334,brgyad zil rdzong /; 九龙县
G2562,拉布寺; lab dgon/; Lab Ganden Do-ngak Shadrub Palgyeling,33.26592,97.13786,称多县; khri 'du rdzong /
G1KR800,云仙寺,28.06667,99.38333,Dechen County; 德钦县; bde chen rdzong /
G00AG01697,o rgyan 'gro 'dren gling /,,,myang stod/; rgyal rtse rdzong /; 江孜县; Gyangtse county
G2712,布让萨迦寺; spu rong sa skya dgon/,33.37034,97.07851,yul shul rdzong /; 玉树县
G1AG89,kre wel dbu sde/,,,
G1PD95995,盘龙寺; phan lung zi/,36.17549,102.89144,民和县; bka' ma log rdzong /
G1KR1616,gyang rong ser sding /; 色丁寺,28.58333,89.66666,khang dmar rdzong /; 康马县; Kangmar county
G1852,a myes ri lang lha khang /,,,khri ka rdzong /; 贵德县
G1KR138,'bar khams se ra dgon/; 沙拉寺,32.22169,101.62607,马尔康县; Barkham County; 'bar khams rdzong /
G1PD96108,bum pa chos lung /; 却隆寺,36.93,101.91,Gonlung; dgon lung rdzong /; 互助县
G2275,麻米寺; ma mig dgon/,32.04,83.72,sger rtse rdzong /; 改则县; Gertse County; ma mig chus (sger rtse rdzong)
G4901,lhar yag dgon pa/; 黑尔雅寺,32.2302,102.17435,马尔康县; Barkham County; 'bar khams rdzong /
G2CN11081,mtsho kha dgon pa/,,,ri bo che rdzong /; Riwoche county; 类乌齐县
G1KR1511,chu mig dgon/; 曲米寺,29.13333,88.71667,gzhis ka rtse/; 桑珠孜区(2014); Shikatse City (1986-2014)
G1KR2337,bu'u smad do'u zi/; 吾曼道寺,35.599,102.58757,循化县; ya rdzi rdzong /
G1PD95978,广福寺; kong h+phu zi/,36.42867,102.71452,民和县; bka' ma log rdzong /
G301,shis tshang dgon gsar/; 西仓新寺,34.56912,102.55889,shis tshang /; 碌曲县; klu chu rdzong /
G2748,Ratsa Gon; ra rtsa dgon/,,,Gannan Prefecture; kan lho rang skyong khul/; 甘南州
G1KR312,mu ji si (dgon); 木吉寺,28.91667,101.83334,brgyad zil rdzong /; 九龙县
G4044,kun 'gro dgon/,,,rong brag rdzong /; Rongdrak county; 丹巴县
G1KR1225,夏桑寺,30.56667,97.78333,brag g.yab rdzong /; 察雅县; Drakyap County
G00AG01696,phung po ri bo che dgon/,,,ngam ring rdzong /; Ngamring county; 昂仁县
G2LS520,glang sna dgon/; 朗纳寺,30.78333,81.48333,spu hreng rdzong /; Purang county; 普兰县
G1KR2889,lung dmar tshogs ra/; 龙麻宗教活动点,34.57473,95.34281,曲麻莱县; chu dmar leb rdzong /
G4057,dga' ldan phun tshogs gling dgon/; 彭措岭寺,31.1,101.86667,rong brag rdzong /; Rongdrak county; 丹巴县
G1687,pad snying dgon/; 白尼寺,32.4,99.05,sde dge rdzong /; 德格县; Derge County
G280,rgyal lha khang /; 杰堆寺,29.97411,90.9776,lhun grub rdzong /; 林周县; Lhundrub county; 'phan yul rgyal/
G2DOMM0037,Ürjan Khajodlin khiid; u rgyan mkha' spyod gling /,47.93,106.89,Ulaanbaatar; 乌兰巴托; u lan dpa' thul/; Улаанбаатар
G3945,rtse dgon bkra shis chos gling /,,,ser shul rdzong /; Seshul county; 石渠县
G3322,nyi ma thang dgon pa/; 尼玛汤寺,29.50162,91.05206,stod lung bde chen rdzong /; Tolung Dechen County; 堆龙德庆县; chu shur rdzong /; 曲水县; Chushur County; sne'u shang (chu shur rdzong)
G1KR1476,Pemaling; pad ma gling dgon/; 白玛林寺,28.28124,90.75196,lho brag rdzong /; 洛扎县; Lhodrag county
G1592,a dkar dgon/; 朱贡寺,30.93333,100.31667,nyag rong rdzong /; 新龙县; Nyakrong county
G1KR1753,sgang ru sgra rgyal dgon/; 贡如寺,32.525614,94.545218,Bachen county; sbra chen rdzong /; 巴青县
G3CN379,rta nag sgrol ma phug,,,rta nag mda' shang (bzhad mthong smon); rta nag lung pa/
G2581,拉喔寺; gla gro dgon/,32.34979,97.16551,yul shul rdzong /; 玉树县
G2878,khyung rdzong dkar po/,,,ru thog rdzong /; 日土县; Rutok County; rtsa mda' rdzong /; 札达县; Tsada County
G2082,khra kha dgon/,,,mal gro gung dkar rdzong /; Medro Gongkar County; 墨竹工卡县
G1KR1224,日邦寺,30.56667,97.78333,brag g.yab rdzong /; 察雅县; Drakyap County
G2LS551,gser gti dgon/; 色底当曲林寺,32.21667,79.35,rtsa mda' rdzong /; 札达县; Tsada County
G4135,dam pa rang grol dgon/; 单巴绒珠寺,30.48333,101.48333,rta'u rdzong /; 道孚县; Tawu county; lcags zam rdzong /; 泸定县
G1PD95786,藏经寺; tshang cing zi/,36.61,101.78,西宁市; zi ling grong khyer/
G1KR311,er go si (dgon); 尔苟寺,28.91667,101.83334,brgyad zil rdzong /; 九龙县
G1KR2670,涣隆寺; dpon lung dgon pa/,33.78,101.03,久治县; gcig sgril rdzong /
G3280,hor tshang dgon gsar/,,,hor tshang /
G2053,饶杰林寺; rab rgyas gling dgon/,29.75643,91.67002,mal gro gung dkar rdzong /; Medro Gongkar County; 墨竹工卡县
G3467,扎嘎寺; dzaHka dgon/,31.05,99.28333,dpal yul rdzong /; Palyul county; 白玉县
G1KR84,干木足寺; ka mchog dgon/,31.86911,102.46491,马尔康县; Barkham County; 'bar khams rdzong /
G1KR1239,白江寺,30.23333,98,brag g.yab rdzong /; 察雅县; Drakyap County
G1PD96281,多洛塘尼姑寺; do lo thang jo mo dgon pa/,35.71004,102.35463,循化县; ya rdzi rdzong /
G1KR2306,斗仓寺; du'u tshang zi/,36.16243,102.33701,化隆回族自治县; ba yan rdzong /
G00AG01700,dwags po rtse le dgon/; 孜列寺,28.86667,92.81667,加查县; Gyatsha county; rgya tsha rdzong /
G3CN378,rta nag phu dgon/,,,rta nag lung pa/; rta nag phu shang (bzhad mthong smon)
G1KR764,康坞寺; khe 'ong dgon,28.13333,101.21667,mu li rdzong /; 木里县; Muli county
G3811,'o thang dgon/,,,dpal yul rdzong /; Palyul county; 白玉县
G4609,乌香拉康; 'ur zhang dgon/,29.42962,90.9485,chu shur rdzong /; 曲水县; Chushur County
G1PD95785,金塔寺; cing tha zi/,36.61,101.78,西宁市; zi ling grong khyer/
G1KR1540,dkyil mkhar brag phug; 金嘎溶洞,28.78333,89.31667,rgyal rtse rdzong /; 江孜县; Gyangtse county
G1KR1223,夏林寺,30.56667,97.78333,brag g.yab rdzong /; 察雅县; Drakyap County
G1BR008,Atsagatsky datsan,52.005833,108.272222,Buryatia
G226,gsang phu ne'u thog dgon pa/; Sangpu; 桑普寺,29.54832,91.08624,stod lung bde chen rdzong /; Tolung Dechen County; 堆龙德庆县; gsang /
G1KR310,扎孜寺; brag rtse si/,28.91667,101.83334,brgyad zil rdzong /; 九龙县
G4042,de'u 'bur dgon/,,,rong brag rdzong /; Rongdrak county; 丹巴县
G4346,sa dmar dgon/; 红土寺,32.40578,101.1531,'dzam thang rdzong /; 壤塘县
G393,阿木去乎寺; a mchog dgon/,34.80092,102.67969,bsang chu rdzong /; 夏河县; a mchog; a mchog zhang (bsang chu rdzong)
G1918,阿粗乎寺; a tshogs dgon/,35.67581,100.22994,兴海县; rtsi gor thang rdzong /
G1KR2399,chin kri po'u zi/; 青知布寺,37.32978,99.53567,rkang tsha rdzong /; 刚察县
G296,pe cin tsan dan dgon/,,,pe cin/; 北京
G3943,'bur legs dgon/,,,ser shul rdzong /; Seshul county; 石渠县
G2LS515,gsal ba lung /,,,spu hreng rdzong /; Purang county; 普兰县
G1845,色尔加寺; se kyA bon sngags khang /,35.94506,101.5,khri ka rdzong /; 贵德县
G1KR5,kaH thog bsam gtan dgon/; 禅单寺,31.6309,102.82934,li xian; bkra shis gling rdzong /; 理县
G3642,yid lhung rtsa shul/,,,
G1KR1005,格荣寺,32.06667,97.3,昌都县; chab mdo rdzong /; Chamdo county
G1898,甲乙寺; rgya ye dgon/; Gyaye Gon Ngotsar Tardrenling,36.49279,100.6716,共和县; chab cha rdzong /
G1KR397,扎呷觉母寺; brag dkar jo mo dgon/,31.58333,100.01667,dkar mdzes rdzong /; Kartse County; 甘孜县
G2645,然觉寺; rab 'byor dgon/,32.49242,95.95874,nang chen rdzong /; 囊谦县; Nangchen County
G2525,Dzodge Garnying Ganden Tashi Chopeling; mdzod dge sgar rnying /,34.95119,103.05857,bsang chu rdzong /; 夏河县; mdzod dge rme ma zhang (bsang chu)
G1KR1316,伦珠寺,29.98333,98.3,smar khams rdzong /; 芒康县; Markham county
G2880,hrab dgon/,,,dol po/; bal yul/; 尼泊尔; nepal
G1911,万秀寺; ban shul dgon/,35.6022,101.3519,贵南县; mang ra rdzong /
G2218,mda' ba dgon/; 达巴寺,31.23056,79.92278,rtsa mda' rdzong /; 札达县; Tsada County
G1KR1241,拉布寺,30.23333,98,brag g.yab rdzong /; 察雅县; Drakyap County
G1KR2655,bkra shis chos gling /; 扎西曲朗寺,33.93,100.78,甘德县; dga' bde rdzong /; gtsang skor zhol ma zhang (dga' bde rdzong )
G1KR2725,布让拉康; spu rong lha khang dgon/,33.3712,96.76746,yul shul rdzong /; 玉树县
G1KR1208,达多寺,30.56667,97.96667,brag g.yab rdzong /; 察雅县; Drakyap County
G3643,khro shul 'gag ma/,,,
G1KR1006,德丁寺,32.06667,97.3,昌都县; chab mdo rdzong /; Chamdo county
G1KR1233,察多寺,30.56667,97.78333,brag g.yab rdzong /; 察雅县; Drakyap County
G4562,la mo dgon/; 拉穆寺,29.80973,91.56137,stag rtse rdzong /; 达孜县; Taktse county; la mo/
G2578,当卡寺; 'dam dkar dgon/; Damkar Monastery,,,yul shul rdzong /; 玉树县
G1KR2717,tong nyin ked zi/; 东改寺,32.67385,96.59147,yul shul rdzong /; 玉树县
G1GS6,mdog gsang sngags mkhar/,,,rnam gling rdzong /; 南木林县; Namling County; mdog chos shang (rnam gling rdzong)
G1KR1317,吉日寺,29.98333,98.3,smar khams rdzong /; 芒康县; Markham county
G2216,rab rgyas gling dgon/; 热布加林寺,31.9,79.6,rtsa mda' rdzong /; 札达县; Tsada County
G10MS14565,chos rje rgya che dgon/,,,'dzam thang rdzong /; 壤塘县
G1867,卷木寺; sgrom grwa tshang /,35.84262,101.42956,khri ka rdzong /; 贵德县
G1AG96,chab mdo gling stod grwa tshang /,,,昌都寺; Chamdo Jampaling; chab mdo dgon pa/
G1KR2114,拉沙上静房; zi na'i la sar ri khrod/,36.73956,101.36812,湟源县; stong skor rdzong /
G1KR2031,mtshe'u ru ma'i ser sde/; 采日玛塞德寺,33.47343,102.28278,rma chu rdzong /; 玛曲县
G1KR2287,ki chos zo/; 科却寺,36.10451,102.16859,化隆回族自治县; ba yan rdzong /
G3968,gser rta lha rtse dgon/; 喇则寺,31.91667,100.86667,gser thar rdzong /; 色达县; Serta county
G3940,宜牛寺; 'ju nyung dgon/,33.06667,98.33334,ser shul rdzong /; Seshul county; 石渠县
G3953,mgo tshwa dgon/; 俄查寺,32.58333,98.88333,ser shul rdzong /; Seshul county; 石渠县
G1KR1207,学龙寺,30.56667,97.96667,brag g.yab rdzong /; 察雅县; Drakyap County
G2GS1299,lho nag dgon/,,,Lhorong county; 洛隆县; lho rong rdzong /
G1KR1532,dben rtsa/; 恩扎寺,29.08333,89.63333,rgyal rtse rdzong /; 江孜县; Gyangtse county
G1KR321,tho nyi si (dgon); 托尼寺,28.41667,101.7,brgyad zil rdzong /; 九龙县
G1KR1232,乃德寺,30.56667,97.78333,brag g.yab rdzong /; 察雅县; Drakyap County
G1KR140,上扎西曲林寺; bkra shis chos gling gong ma/,32.27236,100.9493,'dzam thang rdzong /; 壤塘县
G1KR1181,ga shel dgon/; 嘎协寺,31.93569,94.937768,steng chen rdzong /; Tengchen County; 丁青县
G1KR304,spar sa gling dgon/; 巴什宝寺,31.01667,102.13333,rong brag rdzong /; Rongdrak county; 丹巴县
G1908,thul rol sngags khang /,,,贵南县; mang ra rdzong /
G1KR720,cha ran lha khang /; 恰仁拉康,29.03333,99.88333,cha phreng rdzong /; 乡城县
G1KR1025,卓东寺,31.45,98.78333,Joda County; 'jo mda' rdzong /; 江达县
G2442,ya cha dgon/,,,chu shur rdzong /; 曲水县; Chushur County; mnyes thang shang (chu shur rdzong)
G1KR1872,bkra shis rab brtan dgon/; 扎西绕登寺,29.23333,94.06667,Menling County; smin gling rdzong /; 米林县
G00JR692,茸贡寺; ri dgon/,32.41818,101.6338,zung chu rdzong /; 松潘县; shar khog
G1PD96127,bon po rgyud mkhar nang dgon pa/; mkhar nang dgon pa (bon po rgyud ),36.05451,101.95,化隆回族自治县; ba yan rdzong /
G1KR1791,blos btang dgon pa/; 洛当寺,31.5,79.6,rtsa mda' rdzong /; 札达县; Tsada County
G4632,bra 'or dgon/; 查乌寺,28.41942,92.35886,lhun rtse rdzong /; Lhuntse county; 隆子县
G1KR2126,mthun sgril zi/; 团结寺,36.31504,102.85669,民和县; bka' ma log rdzong /
G3640,bro brdung /,,,
G3641,'go tsha/,,,
G3041,lo dgon pa/; 洛普寺,29.92658,91.60416,stag rtse rdzong /; 达孜县; Taktse county; lo phu shang (stag rtse rdzong)
G1KR1209,左古寺,30.56667,97.96667,brag g.yab rdzong /; 察雅县; Drakyap County
G1KR320,jang nyang si (dgon); 江娘寺,28.41667,101.7,brgyad zil rdzong /; 九龙县
G2416,吉彩寺; skyid tshal dgon pa/; Kyitsal,29.26388,90.48647,chu shur rdzong /; 曲水县; Chushur County
G1KR1231,扎宗寺,30.56667,97.78333,brag g.yab rdzong /; 察雅县; Drakyap County
G1KR1154,瓦格寺; wa dge dgon/,31.280659,95.864033,steng chen rdzong /; Tengchen County; 丁青县
G1909,ru sngun grwa tshang /,,,贵南县; mang ra rdzong /
G1KR314,Ergou; er go si (dgon),28.91667,101.83334,brgyad zil rdzong /; 九龙县
G1PD96038,朱家寺; kru'i kya zi bkra shis dga' ldan bde skyid gling /,,,民和县; bka' ma log rdzong /
G1905,塔秀寺; thar shul dgon/,35.45967,100.60137,贵南县; mang ra rdzong /
G4783,雄雄寺; zhong zhong dgon/,29.66667,89.13333,rnam gling rdzong /; 南木林县; Namling County; shangs/
G2443,gsang sngags gling dgon/,,,chu shur rdzong /; 曲水县; Chushur County; tshal sne shang (chu shur rdzong)
G1650,银南寺; ye na dgon/,31.85,98.45,sde dge rdzong /; 德格县; Derge County
G1KR2449,昂让寺; ngang rong dgon/,35.85435,101.79258,gcan tsha rdzong /; 尖扎县
G1KR1240,珠寺,30.23333,98,brag g.yab rdzong /; 察雅县; Drakyap County
G4668,pha nang so dgon pa/,,,
G1KR1178,ri dmar dgon/; 日玛噶桑林寺,31.595707,95.094381,steng chen rdzong /; Tengchen County; 丁青县
G4149,则热寺; rtse ri dgon/,32.86666,97.41666,ser shul rdzong /; Seshul county; 石渠县
G607,rtsed thang dgon/; 阿曲扎仓,29.24915,91.79376,rtsed thang /; sne gdong rdzong /; Nedong County; 乃东县
G1KR1855,吉日寺; dgyes ri dgon/,29.563807,94.490931,林芝县; nying khri rdzong /; Nyingtri county
G1KR1813,普日寺; phu ri dgon pa/,31.75,78.95,rtsa mda' rdzong /; 札达县; Tsada County
G470,bde chen dgon/,,,
G1KR793,滚思寺,28.58333,99.7,香格里拉县; Gyeltang County; sems kyi nyi zla rdzong /
G2678,阿乜寺; dpal chung a mye dgon/,33.18592,97.06322,称多县; khri 'du rdzong /
G3646,ha wag,,,
G3779,'ba' seng khri chos grwa chen mo/,,,
G169,jag rong thur chen dgon/,,,a mdo/; rong chen bzhi/
G1KR1230,布嘎寺,30.56667,97.78333,brag g.yab rdzong /; 察雅县; Drakyap County
G1KR1276,拉日寺,29.83333,98.11667,左贡县; Zogang County; mdzo sgang rdzong /
G1KR222,mdzod ru dgon/; 若日寺,34.13115,103.05018,mdzod dge rdzong /; 若尔盖县
G2884,Palme Do-ngak Shedrubling; dpal me mdo sngags bshad sgrub gling /,,,nang chen rdzong /; 囊谦县; Nangchen County
G1KR1541,gling bu dgon/; 岭普寺,28.83333,89.78333,rgyal rtse rdzong /; 江孜县; Gyangtse county
G4008,'ba' lha ri dgon/; 哈然寺,29.2,99.15,'ba' thang rdzong /; Batang county; 巴塘县
G2KG208038,phur bzlog dgon pa/; phurdogkha temple,,,
G4097,smin grol dgon pa/; 米珠寺,30.35,101,nyag chu rdzong /; 雅江县; Nyakchu county
G2KR39,bkra shis chos 'khor gling /; Dashchoinkhorlin khiid; Dashchoinkhorlin khiid,48.00795,106.9365667,Ulaanbaatar; 乌兰巴托; u lan dpa' thul/; Улаанбаатар
G1KR93,pha bla dgon/; 帕拉寺,31.92528,102.10875,马尔康县; Barkham County; 'bar khams rdzong /
G1AG108,khwa char dgon/,,,spu rang /
G1KR2588,rgyas bza' lde'u tsa'i dgon gsar/; 吉扎寺,35.24823,99.70662,兴海县; rtsi gor thang rdzong /
G2AG22,Draksum Puri; brag gsum spu ri'i dgon pa/,,,
G2GS1296,chos khri thang /,,,Lhorong county; 洛隆县; lho rong rdzong /
G3508,gong dkar bshad sgrub gling /; 夏珠林寺,29.26475,90.81075,gong dkar rdzong /; Gongkar county; 贡嘎县
G2591,嘎巴寺; sga pa dgon/,33.47127,96.65363,yul shul rdzong /; 玉树县
G1KR322,嘉巴寺; ja pa si (dgon),28.41667,101.7,brgyad zil rdzong /; 九龙县
G4181,gtam shul tsher ma lung /,,,gtam shul/; lho brag rdzong /; 洛扎县; Lhodrag county
G3647,dpal ldan byams 'byor/,,,
G1KR1032,夏吉寺,31.88333,98.05,Joda County; 'jo mda' rdzong /; 江达县
G1PD96036,win kya zi bkra shis chos 'phel gling /; 文家寺,,,民和县; bka' ma log rdzong /
G2821,sne gdong rtse tshogs pa/; 孜措巴寺,29.22846,91.7848,sne gdong rdzong /; Nedong County; 乃东县
G1KR812,bkra shis dar rgyas gling /; 寿国寺,27.6,99.01667,Balung County; 'ba' lung rdzong /; 维西县
G1KR2712,栽空改寺; mdzes khang dge dgon pa/,32.9051,96.49702,yul shul rdzong /; 玉树县
G1AG109,thub chen dar rgyas gling /,,,Mustang; glo/
G1KR2804,乜也寺; lho me g.yel dgon pa/,32.02854,96.51535,nang chen rdzong /; 囊谦县; Nangchen County
G4908,塔尔么寺; a dpa' dgon pa/,32.77688,101.90472,阿坝县; rnga ba rdzong /
G4061,g.yung drung dar rgyas gling /; 达吉岭寺,31.1,101.86667,rong brag rdzong /; Rongdrak county; 丹巴县
G2KG208039,spus mo la/; pumola temple,,,
G1KR1603,Renga Chode; 仁嘎曲德寺; rin dga' chos sde/,29.48333,88.56667,bzhad mthong smon rdzong /; Shetongmon county; 谢通门县
G3698,stag mo dgon/; 达莫寺,31.48333,99.3,dpal yul rdzong /; Palyul county; 白玉县
G00KG09974,khrom brda khol dgon/,,,dpal yul rdzong /; Palyul county; 白玉县
G1KR1660,达那寺; rta rna dgon/; South Tana Monastery,31.53333,92.73333,Nagchu County; nag chu rdzong /; 那曲县
G1KR1634,？？; skyid rom dgon/; Kyirom,27.53333,88.93333,gro mo rdzong /; 亚东县; Dromo county
G1KR2113,bum pa ri khrod/; 奔巴尔静房,36.71726,101.36417,湟源县; stong skor rdzong /
G4407,smon mkhar dgon/,,,snye mo rdzong /; 尼木县; Nyemo county; snye mo shang (snye mo rdzong)
G1KR2763,嘎洒寺; sga gsar dgon pa/,33.16714,94.26907,杂多县; rdza stod rdzong /
G473,khro ru/,,,
G1KR2507,班多参康; ba' mdom mtshams khang /,35.36824,100.34526,同德县; gad pa sum mdo rdzong /
G1KR2333,cha kya dgon/; 恰加寺,35.9779,102.5,化隆回族自治县; ba yan rdzong /
G2GS1298,gzhi bkram dgon/,,,Lhorong county; 洛隆县; lho rong rdzong /
G1KR2845,改加寺; ge cag dge dgon pa/,31.88211,96.00251,nang chen rdzong /; 囊谦县; Nangchen County
G3645,zur lha 'bum/,,,
G475,'bri sgang /,,,'on/
G1PD96165,乙什扎寺; g.yu tsha dgon pa/,36.1,102.35,化隆回族自治县; ba yan rdzong /
G1531,bsam grub dgon/; 桑珠寺,31.9,99.65,dkar mdzes rdzong /; Kartse County; 甘孜县
G1KR57,大哇寺; ta wa dgon/,30.78236,102.24607,btsan lha rdzong /; 小金县
G2DOMM0033,Mongoliin Ikh Khüree khiid,47.92,106.9,Ulaanbaatar; 乌兰巴托; u lan dpa' thul/; Улаанбаатар
G2883,Dza Merchen Lhundrubling; mer chen lhun grub gling dgon/,,,
G1AG107,g.yu thog rnam rgyal gling /,,,
G1KR1221,色多寺,30.3,97.63333,brag g.yab rdzong /; 察雅县; Drakyap County
G2GS1297,spar chu mdo dgon/,,,Lhorong county; 洛隆县; lho rong rdzong /
G341,lho lung dkar dgon/,,,nang chen rdzong /; 囊谦县; Nangchen County
G10MS14284,stag tsha dgon/; 达扎寺,33.58321,102.96635,mdzod dge rdzong /; 若尔盖县
G1KR1873,羌纳寺,29.38333,94.5,Menling County; smin gling rdzong /; 米林县
G1KR2614,合洛寺; sog po dgon/,36.03284,100.76,贵南县; mang ra rdzong /
G1KR1720,鲁仓寺,30.73333,89.08334,shan rtsa rdzong /; Shantsa county; 申扎县
G3832,lcang lung dgon/; 龚拢寺,31.55,99.15,g.yung drung rnam bkod/; dpal yul rdzong /; Palyul county; 白玉县
G343,gtsang chu bzang dgon pa/,,,
G3797,昆觉寺; khu 'byor dgon/,29.41667,101.3,康定县; Dardo county; dar mdo rdzong /
G1KR424,ri brag dgon/; 日绕寺,31.65,100.16666,dkar mdzes rdzong /; Kartse County; 甘孜县
G1KR1026,根沙寺,31.93333,98.4,Joda County; 'jo mda' rdzong /; 江达县
G1KR1035,地普寺,31.88333,98.05,Joda County; 'jo mda' rdzong /; 江达县
G1KR1615,sho lha/; 索拉寺,28.53333,89.68333,khang dmar rdzong /; 康马县; Kangmar county
G4920,mdo li rdo kha dgon/; 多利多卡寺,33.85,100.11,mgo log
G4796,kun bzang gling /,,,paro; spa gro/
G1PD95986,广修寺; kong phyug zi/,36.31186,102.86063,民和县; bka' ma log rdzong /
G2GS1292,bsam gtan gling /,,,skyid grong rdzong /; 吉隆县; Kyirong county
G1KR2821,噶玛达杰寺; karma dar rgyas dgon pa/,32.4166,96.07999,nang chen rdzong /; 囊谦县; Nangchen County
G1PD96122,rta gdong dkar po/; 东冲寺,36.24352,101.88,化隆回族自治县; ba yan rdzong /
G342,ri gong dgon pa/,,,
G1KR1061,bla khri dgon/; 拉池寺,32.112599,97.473811,sde dge; Joda County; 'jo mda' rdzong /; 江达县
G3464,rgyal mo dgon/,,,
G16,rdzogs chen dgon/; Dzogchen Monastery; 竹庆寺,32.13334,98.85,sde dge rdzong /; 德格县; Derge County
G1KR1721,拉龙寺,30.73333,89.08334,shan rtsa rdzong /; Shantsa county; 申扎县
G1KR1353,khra rgan dgon/; 察根寺,30.949464,96.439054,Lhorong county; 洛隆县; lho rong rdzong /
G2711,达杰寺; dar rgyas dgon/,33.47437,96.62302,yul shul rdzong /; 玉树县
G1KR1036,乃多寺,31.88333,98.05,Joda County; 'jo mda' rdzong /; 江达县
G344,dpal steng dgon pa/,,,
G4791,岭青寺; gling chen dgon/,30.9,101.93333,rong brag rdzong /; Rongdrak county; 丹巴县
G4795,gsang sngags theg mchog gling /,,,la stod byang khri skor/
G2570,白智寺; be sprul dgon/,,,杂多县; rdza stod rdzong /
G1DOMM0013,Dagwa zodchiin khural,47.9,106.9,Ulaanbaatar; 乌兰巴托; u lan dpa' thul/; Улаанбаатар
G1KR1263,沙绕寺,30.25,96.65,八宿县; Pashod County; dpa' shod rdzong /
G2KR115,Shireetü juu; Xilituzhao; bkra shis yon brtan gling; Öljeiyi Ekinende Bolgagci Süme; Öljei-yi ekinende bolγaγci süme; Jalafun be enteheme obure szu; 延壽寺,40.799854,111.649457,mkhar sngon grong khyer; Kökeqota; Kökeqota; 呼和浩特市
G2GS1291,me tog mdangs can/,,,skyid grong rdzong /; 吉隆县; Kyirong county
G1DOMM0011,Manj ambanii khurliin dugan,47.9,106.92,Ulaanbaatar; 乌兰巴托; u lan dpa' thul/; Улаанбаатар
G3852,rgya rong dgon/; 吉绒寺,31.46667,100.55,brag 'go rdzong /; 炉霍县; Drakgo county
G212,bar 'brog rdo rje gling /; Bardrok Dorjeling,,,
G1919,沙那寺; sa sna dgon/,35.64372,99.94604,兴海县; rtsi gor thang rdzong /
G1KR2279,拉公麻寺; la gong ma dong pa/,36.14648,101.98,化隆回族自治县; ba yan rdzong /
G2CN11125,dbang ldan lhun grub sgang /,,,pa snam rdzong /; 白朗县; Panam County; dbang ldan khul/
G1KR1202,格顿寺,30.91667,97.38333,brag g.yab rdzong /; 察雅县; Drakyap County
G3612,chos sde dgon/; 温嘎曲德寺; Chode,28.97993,90.40566,sna dkar rtse rdzong /; Nangkartse County; 浪卡子县
G2829,西扎寺; shel brag,29.21617,91.71075,sne gdong rdzong /; Nedong County; 乃东县; rgya khams tshan ('bras spungs blo gsal gling)
G1KR1028,格土寺,31.93333,98.4,Joda County; 'jo mda' rdzong /; 江达县
G1KR1033,朝日寺,31.88333,98.05,Joda County; 'jo mda' rdzong /; 江达县
G1KR108,mnyam mkhas dgon/; 年克寺,31.85498,101.80166,马尔康县; Barkham County; 'bar khams rdzong /
G4661,nag ri dgon pa/,,,
G1729,'phrang khra ma dgon/,,,dwags gzhung zhang /
G1KR623,俄若寺; o rod dgon/,33.01667,98.15,ser shul rdzong /; Seshul county; 石渠县
G2660,巴艾寺; dpal be'u dgon/,32.97337,95.58467,杂多县; rdza stod rdzong /
G1KR19,gla ro dgon/; 纳洛寺,32.46736,103.10514,zung chu rdzong /; 松潘县
G1PD96298,铁尕楞寺; gter kha lung sgar/,35.70412,102.62251,循化县; ya rdzi rdzong /
G2GS1294,nga 'du dgon/,,,Lhorong county; 洛隆县; lho rong rdzong /
G1KR2885,rgyang ring zi/; 江让寺,34.07051,96.22927,曲麻莱县; chu dmar leb rdzong /
G2CN11139,yang dgon mthong grol gling /,29.091498,83.413814,bal yul/; 尼泊尔; nepal
G1568,严绕寺; nya brag dgon/,31.61667,99.86667,dkar mdzes rdzong /; Kartse County; 甘孜县
G2521,扎油寺; tsa yus dgon/; Tsayu Gon Ganden Chopeling,34.95564,102.79059,bsang chu rdzong /; 夏河县; tsa yus zhang (bsang chu rdzong)
G4729,拉恰噶尔寺; lha chab sgar/,35.19075,102.6673,mda' med zhang (bsang chu rdzong)
G346,stod lung rnam rgyal dgon/,,,stod lung bde chen rdzong /; Tolung Dechen County; 堆龙德庆县
G4015,彭吉林寺; spung ri dgon/,30.28333,99.25,'ba' thang rdzong /; Batang county; 巴塘县
G1KR1027,帮扎寺,31.93333,98.4,Joda County; 'jo mda' rdzong /; 江达县
G1KR1034,各次寺,31.88333,98.05,Joda County; 'jo mda' rdzong /; 江达县
G1884,铁盖寺; the ge dgon/,35.941644,100.628009,共和县; chab cha rdzong /
G1PD96103,尕扎寺; ka Ta lha khang /,36.66395,102.21,Gonlung; dgon lung rdzong /; 互助县
G1DOMM0015,Agwa datsan; sngags pa grwa tshang /,47.9,106.9,Ulaanbaatar; 乌兰巴托; u lan dpa' thul/; Улаанбаатар
G1KR1167,gnam steng dgon/; 郎登寺,31.187841,95.310118,steng chen rdzong /; Tengchen County; 丁青县
G4224,g.yag mgo dgon/,,,byar yul/
G1KR2921,夏日哈石经院; zha ri ha hri dper khang /,37.43032,99.17978,天峻县; them chen rdzong /
G1KR2796,东程寺; gdor spras dgon/,33.37128,97.1133,称多县; khri 'du rdzong /
G347,rdo lung dgon pa/,,,mkho thang /
G3981,东嘎寺; gser rta dung dkar dgon/,32.26667,100.35,gser thar rdzong /; 色达县; Serta county
G2573,贡洒寺; dgon gsar dgon/; gangcha si,,,治多县; 'bri stod rdzong /
G4667,'gag la co ge dgong pa/,,,
G4401,bye mkhar chos sde/,,,snye mo rdzong /; 尼木县; Nyemo county; dar grong grong rdal (snye mo rdzong)
G00AG01618,rgya mkhar gsang sngags chos gling /,,,la stod byang khri skor/
G1213,dga' gdong dgon/; 嘎东寺,29.68767,90.95043,stod lung bde chen rdzong /; Tolung Dechen County; 堆龙德庆县
G1KR1047,沙嘎寺,31.9,97.73333,Joda County; 'jo mda' rdzong /; 江达县
G1KR1204,觉科寺,30.56667,97.96667,brag g.yab rdzong /; 察雅县; Drakyap County
G1913,铁瓦寺; this pa dgon/; Tipa Gon Ganden Tashi Sung-rab Ling,35.86175,101.45303,khri ka rdzong /; 贵德县
G3203,sgom med 'od gsal thang chos sgar/,,,
G3469,gnyal sde drug,,,gnyal/; lhun rtse rdzong /; Lhuntse county; 隆子县; sde drug bla brang /
G1KR1277,仁果寺,29.98333,98.03333,左贡县; Zogang County; mdzo sgang rdzong /
G1KR733,spang dog dgon/; 崩土寺,29.28333,99.55,cha phreng rdzong /; 乡城县
G1KR96,？; bya rong dgon/,31.84171,101.97324,马尔康县; Barkham County; 'bar khams rdzong /
G3521,结林措巴寺; rgyal gling tshogs pa/,29.19799,91.30387,grwa nang rdzong /; Dranang county; 扎囊县
G1KR724,don grub lha khang /; 邓珠拉康,28.75,99.86667,cha phreng rdzong /; 乡城县
G4666,'bom bu dgon pa/,,,
G4799,rtse lha sgang /,,,
G4533,bkra shis rab brtan gling /,,,
G1KR1048,tshe ring dgon/; 次仁寺,31.9,97.73333,Joda County; 'jo mda' rdzong /; 江达县
G3109,曲瓦寺; chu dbar dgon/,28.03333,86.33334,ding ri rdzong /; 定日县; Tingri County; 聂拉木县; gnya' lam rdzong /; Nyalam county; gnya' nang khul/
G00AG01617,bde grol gsang sngags chos gling /,,,
G1KR1203,旺布寺,30.56667,97.96667,brag g.yab rdzong /; 察雅县; Drakyap County
G216,sgang sngon dgon/,,,
G3466,rmugs sangs dgon/,,,Joda County; 'jo mda' rdzong /; 江达县
G3806,吉真卡寺; spang ri dgon/,29.33333,101.06667,康定县; Dardo county; dar mdo rdzong /
G1KR97,bum khur dgon/; 蒙古寺,31.85671,101.95824,马尔康县; Barkham County; 'bar khams rdzong /
G1KR83,shis bkra dgon/; 斯扎寺,31.86687,102.48172,马尔康县; Barkham County; 'bar khams rdzong /
G349,lho brag thig phyi/,,,lho brag; lho brag rdzong /; 洛扎县; Lhodrag county
G1586,dpal ri dgon/; 巴如寺,31.31667,100.23333,nyag rong rdzong /; 新龙县; Nyakrong county
G1KR1275,江玛寺,29.11667,98.23333,左贡县; Zogang County; mdzo sgang rdzong /
G1KR1037,根沙寺,31.88333,98.05,Joda County; 'jo mda' rdzong /; 江达县
G1KR63,dbo sgri dgon/; ？,32.06178,103.11096,khro chu rdzong /; 黑水县
G2572,扎西拉武寺; bkra shis lha phug dgon/,33.31504,95.19575,杂多县; rdza stod rdzong /
G1IC0013,Üsütü Juu; Üsütü juu; 烏素圖召,40.8275,111.559,mkhar sngon grong khyer; Kökeqota; Kökeqota; 呼和浩特市
G1PD96284,bis thang la kha'i sgar/; 比塘寺,35.78867,102.2448,循化县; ya rdzi rdzong /
G2KG221956,g.yung drung dgon/; yuru monastery,34.283487,76.774169,gle/; Leh
G1KR2385,阿柔大寺; a rig dgon/,38.0461,100.39917,a rig; chu len rdzong /; 祁连县
G1KR1314,维成寺,29.98333,98.3,smar khams rdzong /; 芒康县; Markham county
G1820,khang dmar dgon/; 康玛寺; Kangmar Monastery,30.59829,91.24441,'dam gzhung rdzong /; Damzhung county; 当雄县
G1KR723,bstan rnam lha khang /; 丹娘拉康,28.75,99.86667,cha phreng rdzong /; 乡城县
G00EGS1017104,rdzong dkar chos sde/; 宗嘎曲德,28.85,85.3,gung thang shang (skyid grong rdzong ); skyid grong rdzong /; 吉隆县; Kyirong county
G1DOMM0012,Jagarmolomiin khural; rgya gar smon lam/,47.9,106.9,Ulaanbaatar; 乌兰巴托; u lan dpa' thul/; Улаанбаатар
G2GS1290,dga' ldan lhun po/,,,skyid grong rdzong /; 吉隆县; Kyirong county
G288,才旦寺; Tseten Gon Ganden Shedrubling; tshe tan dgon/,35.91823,102.77701,民和县; bka' ma log rdzong /
G1KR1255,帮达寺,30.35,97.21667,八宿县; Pashod County; dpa' shod rdzong /
G1KR236,chos rje dgon/; 求吉寺,33.67382,103.34692,阿坝县; rnga ba rdzong /
G1KR1045,多顶寺,31.9,97.73333,Joda County; 'jo mda' rdzong /; 江达县
G1KR1206,拉西寺,30.56667,97.96667,brag g.yab rdzong /; 察雅县; Drakyap County
G64,lha thel rin chen gling /,,,
G3190,格尔登寺; kirti dgon/,32.91434,101.69242,阿坝县; rnga ba rdzong /
G2265,顿久寺; rdo chu dgon/,30.98,80.94,sgar rdzong /; 噶尔县; Gar County
G265,年玉寺; mnyan yod bya rgod gshongs/,29.26667,88.33334,lha rtse rdzong /; 拉孜县; Lhatse county
G1KR118,lha tshe dgon/; 黑尔吉寺,32.22089,102.18826,马尔康县; Barkham County; 'bar khams rdzong /
G1KR1315,崩囊寺,29.98333,98.3,smar khams rdzong /; 芒康县; Markham county
G1KR722,乌鲁拉康; dgon gsar lha khang /,28.75,99.86667,cha phreng rdzong /; 乡城县
G1KR183,d+hI phu dgon/; 德格寺,32.93819,101.59311,阿坝县; rnga ba rdzong /
G1KR1256,格寺,30.35,97.21667,八宿县; Pashod County; dpa' shod rdzong /
G1KR2664,dwangs gzhung smug skar chos sgar/; 党项姆果寺,33.72954,99.45,达日县; dar lag rdzong /
G1KR1205,向康大殿,30.56667,97.96667,brag g.yab rdzong /; 察雅县; Drakyap County
G1KR1046,依日寺,31.9,97.73333,Joda County; 'jo mda' rdzong /; 江达县
G2DOMM0012,Dechinlkhündüvlin; Janchüvish dashlkhündüvlin khiid; *bde chen lhun grub gling /; byang chub ye shes bkra shis lhun grub gling /,47.9,106.69,Ulaanbaatar; 乌兰巴托; u lan dpa' thul/; Улаанбаатар; Baruun khuree; Баруун хүрээ; Рибогэзайгаданшаддүвлин; *ri bo dge rgyas dga' ldan bshad sgrub gling /
G1KR807,扎加寺,28.96667,98.96667,Dechen County; 德钦县; bde chen rdzong /
G1KR1867,古布宗寺,29.83333,92.75,kong po rgya mda' rdzong /; 工布江达县; Kongpo Gyamda County
G1563,gzhi chen dgon/; 昔青寺,31.95,100.26667,mgo log; dkar mdzes rdzong /; Kartse County; 甘孜县
G1KR756,茨巫康村寺; jo bo khang tshan/,29.05,99.31667,sde rong rdzong /; 得荣县; Derong county
G1941,土夫多参康; kho nag mtshams khang /,35.22704,100.41,同德县; gad pa sum mdo rdzong /
G2LS590,rdo gsham mug mkhar dgon/,,,rtsa mda' rdzong /; 札达县; Tsada County
G2933,'od gsal dgon/,,,波密县; spo bo rdzong /; Pome County; rdo rje chus (spo bo rdzong)
G1PD96030,hi kya zi/; 何家寺,35.88,102.82,民和县; bka' ma log rdzong /
G4096,phag mo ri'i dgon pa/; 膀木林寺,29.58333,101.13333,nyag chu rdzong /; 雅江县; Nyakchu county
G1KR673,bon po dgon/; 崩波寺,30.46667,100.1,li thang rdzong /; 理塘县; Litang county
G4497,sku shug dgon/,,,
G2542,刚察小寺; rkang tsha dgon chung /,37.49921,100.1,rkang tsha rdzong /; 刚察县
G239,东科尔寺; stong 'khor dgon pa/; Tongkor Gonpa,36.53,101.15,湟源县; stong skor rdzong /
G1868,khri ka rdor dgon/,,,khri ka rdzong /; 贵德县
G3837,'jang sgang dgon/; 牛角寺,31.46667,100.55,brag 'go rdzong /; 炉霍县; Drakgo county
G1842,贷尔加俄康; hor kyA sngags khang /,35.98944,101.38,khri ka rdzong /; 贵德县
G1KR1710,唐卡寺,32.25,91.66666,Amdo county; a mdo rdzong /; 安多县
G3298,rta'u dgon/,,,snye mo rdzong /; 尼木县; Nyemo county; gzhu phu shang (snye mo rdzong)
G1KR1466,堆西寺; stod gzigs dgon/; Tozik,28.9795,92.16393,chu gsum rdzong /; Chusum county; 曲松县
G2051,噶才寺; dbu ru ka tshal lha khang /,29.86472,91.756,mal gro gung dkar rdzong /; Medro Gongkar County; 墨竹工卡县; dbu ru/; Central Horn; bya ra mdo shang /; mtha' 'dul gyi gtsug lag khang bzhi/; ka tshal grong tsho (mal gro gung dkar rdzong)
G2934,dgon chung kha/,,,波密县; spo bo rdzong /; Pome County; rdo rje chus (spo bo rdzong)
G1PD95997,普化寺; bkra shis chos 'khor gling /,36.24911,102.5836,民和县; bka' ma log rdzong /
G1PD96078,鹿角哇寺; tshang kya'i sku 'bum dgon/,36.69912,102.38,乐都县; gro tshang rdzong /
G2596,巴干寺; 'ba' dgon/,33.13572,97.33001,称多县; khri 'du rdzong /
G4496,dga' mal dgon/,,,zung chu rdzong /; 松潘县
G4230,dga' ldan bshad sgrub gling /,,,
G3932,智噶寺; drel dkar dgon/,33.41667,98.01667,ser shul rdzong /; Seshul county; 石渠县
G1KR1939,rna lung ri khrod/; 那朗静修院,34.50394,103.69187,卓尼县; co ne rdzong /
G1692,chu ngogs dgon/; 曲欧寺,32.3,98.93333,sde dge rdzong /; 德格县; Derge County
G1869,rdo ri sngags khang /,,,khri ka rdzong /; 贵德县
G1KR2922,扎查寺; bkra tsha sngags dgon/,37.51,99.13,天峻县; them chen rdzong /
G3299,mkha' spyod dgon/,,,snye mo rdzong /; 尼木县; Nyemo county; mar rgyang shang (snye mo rdzong)
G1PD96039,a lan ge zi/; 阿兰盖寺,35.85721,102.86089,民和县; bka' ma log rdzong /
G1KR2726,rdzong chen jo gling /; 左青尼姑寺,33.41922,96.6021,yul shul rdzong /; 玉树县
G1KR2678,jo lag chos sgar/; 角勒寺,33.3,100.56,久治县; gcig sgril rdzong /
G4051,gsang sngags rab brtan gling /; 大师宝庙,30.93333,101.95,rong brag rdzong /; Rongdrak county; 丹巴县
G1IC0013003,bstan dga' gling; Baragun Üsütü Süme; Baraγun üsütü süme; Sajin urgungge juktehen; 法禧寺,40.8275,111.559,Üsütü Juu; Üsütü juu; 烏素圖召
G2661,杰仲寺; rje drung dgon/,32.99245,95.58092,杂多县; rdza stod rdzong /
G1BR001,Gusinozersky datsan,51.1216,106.2648,Buryatia
G1KG1670,ra this dgon/,,,mi nyag ring mo/
G1649,bzang zla dgon/; 绒达寺,32.16667,99.35,sde dge rdzong /; 德格县; Derge County
G1PD96032,吕家寺; lus kya zi/,35.88,102.82,民和县; bka' ma log rdzong /
G4495,dga' mal dgon khag,,,zung chu rdzong /; 松潘县; shar khog
G3933,rdza rgyal dgon/; 扎加寺,33.41667,98.01667,ser shul rdzong /; Seshul county; 石渠县; rdza chu kha/
G3819,热加寺; rab khyab dgon/,31.36667,99.1,dpal yul rdzong /; Palyul county; 白玉县
G1808,然亚寺; ra ya dgon/,32.7,100.88,paN chen zhang /
G1595,汤波寺; gzur lha 'bum dgon/,31.4,100.2,nyag rong rdzong /; 新龙县; Nyakrong county
G1DOMM0032,thang stong rgyal po/; Tantonjalbiin khural,47.9,106.9,Ulaanbaatar; 乌兰巴托; u lan dpa' thul/; Улаанбаатар
G1KR2802,堪郭寺; mgar mgo 'od gsal gling /,32.2047,96.46614,nang chen rdzong /; 囊谦县; Nangchen County
G1600,rme pa gser gzhong dgon/,,,rme yul/; nyag rong rdzong /; 新龙县; Nyakrong county
G3850,旺达寺; rba mda' dgon/,31.51667,100.7,brag 'go rdzong /; 炉霍县; Drakgo county
G1733,cha yus dgon/,,,甘德县; dga' bde rdzong /; khyi 'bri zhang /
G3949,嘎依寺; ka bzhi dgon/,33.38334,97.8,ser shul rdzong /; Seshul county; 石渠县
G1KR2006,桑周寺; kha pa'i bsam grub bon dgon/,34.12888,103.51142,迭部县; the bo rdzong /
G4014,rdor dge dgon/; 扎呷寺,30.21667,99.3,'ba' thang rdzong /; Batang county; 巴塘县
G1KR983,gru gu dgon/; 珠古寺,31.2,97.06667,昌都县; chab mdo rdzong /; Chamdo county
G1KR2677,龙合热寺; g.yag ra nag sgar/,33.3,100.56,久治县; gcig sgril rdzong /
G1KR790,亚不亚寺,28.45,99.81667,香格里拉县; Gyeltang County; sems kyi nyi zla rdzong /
G4058,bde chen lhun grub gling /,,,rong brag rdzong /; Rongdrak county; 丹巴县
G1IC0013002,Öljeiyi Urtudqalci Süme; Öljei-yi urtudqalci süme; 長壽寺,40.8275,111.559,Üsütü Juu; Üsütü juu; 烏素圖召
G1KR136,yum 'dus dgon/; 颜木底寺,32.22169,101.59607,马尔康县; Barkham County; 'bar khams rdzong /
G1PD96031,chin kya zi/; 秦家寺,35.88,102.82,民和县; bka' ma log rdzong /
G3934,'bar chung dgon/; 玛琼寺,33.41667,98.01667,ser shul rdzong /; Seshul county; 石渠县
G1534,yon tan dgon/; 云登寺,28.56667,99.6,香格里拉县; Gyeltang County; sems kyi nyi zla rdzong /
G1KR2580,chos lung gser dgon pa/; 曲隆赛尔贡寺,36.15995,101.17448,khri ka rdzong /; 贵德县
G3297,dbu chu dgon/,,,snye mo rdzong /; 尼木县; Nyemo county; gzhu phu shang (snye mo rdzong)
G3036,spras rin chen brag,,,'phan yul/; stag rtse rdzong /; 达孜县; Taktse county
G1KR2624,mkhar nang dgon pa/; 卡昂寺,33,100.06,班玛县; pad+ma rdzong /; Pema county
G3875,江久寺; skyid 'jo dgon/,30.48333,100.3,li thang rdzong /; 理塘县; Litang county
G2937,dgon smad ri khrod/,,,波密县; spo bo rdzong /; Pome County; rdo rje chus (spo bo rdzong)
G1IC0013005,Aguiyin Sitügenü Süme; Aγui-yin sitügen-ü süme; 羅漢寺,40.8275,111.559,Üsütü Juu; Üsütü juu; 烏素圖召
G1900,chos lung sngags khang /; 切龙寺,36.09643,99.86951,共和县; chab cha rdzong /
G1BR011,Tsulginsky datsan,51.10749,107.211505,Buryatia
G1KR2839,德钦改寺; bde chen steng dge dgon pa/,32.30849,95.60799,nang chen rdzong /; 囊谦县; Nangchen County
G2426,Sang-ngak Jangchubling; byang chub gling dgon/; 降曲林寺,29.42711,90.70146,chu shur rdzong /; 曲水县; Chushur County; chu shur grong rdal/
G1686,rdza ri mgul dgon/; 仁古寺,32.23333,99.26667,sde dge rdzong /; 德格县; Derge County
G4235,chab tshab theg chen chos 'khor gling /,,,共和县; chab cha rdzong /
G1KR2493,后菊花寺; gyog kha'i sngags khang /,36.14993,100.89334,共和县; chab cha rdzong /
G4368,ru chung dgon/,,,bsang chu rdzong /; 夏河县
G1KR1104,德色寺,30.45,98.63333,贡觉县; Gongjo County; go 'jo rdzong /
G3472,rin chen steng dgon/,,,gnyal/; gnyal sde drug
G4012,曲岭寺; 'ba' chos gling dgon/,30.21667,99.3,'ba' thang rdzong /; Batang county; 巴塘县
G3635,khrom dge dgon/; 昌根寺,30.9,99.65,dpal yul rdzong /; Palyul county; 白玉县
G1KR2679,哇赛寺; sbra gsar dgon/,33.3,100.56,久治县; gcig sgril rdzong /
G526,snyi phu bde chen bsam 'grub/,,,kong po/
G1KR841,希德寺; bzhi sde dgon/,29.65655,91.12834,lha sa/; Lhasa; 拉萨
G1IC0013004,che rgyas gling; Üsütü Juu; Üsütü juu; Jalafun be badarambure juktehen; 廣壽寺,40.8275,111.559,Üsütü Juu; Üsütü juu; 烏素圖召
G4234,bsam yas rab byung grwa tshang /,,,
G4101,mi nyag 'du ra dgon pa/,,,nyag chu rdzong /; 雅江县; Nyakchu county
G1PD96139,尕加寺; brag khang dgon pa/,36.02584,102.28175,化隆回族自治县; ba yan rdzong /
G1KR1029,扎西寺; bkra shis dgon/,31.93333,98.4,Joda County; 'jo mda' rdzong /; 江达县
G1AG12,gle dgon/,,,brag g.yab rdzong /; 察雅县; Drakyap County
G175,hor dgon/; 毛藏寺,37.51667,102.41666,dpa' ris rdzong /; 天祝县
G3473,ngang skyal chos sde/,,,gnyal/; gnyal sde drug
G1910,tsha rnga dgon/,,,贵南县; mang ra rdzong /
G1KR1105,郭空寺,30.45,98.63333,贡觉县; Gongjo County; go 'jo rdzong /
G1KR2506,唐义参康; thar yas mtshams khang /,35.37464,100.25993,同德县; gad pa sum mdo rdzong /
G2935,g.yang dkar dgon/,,,波密县; spo bo rdzong /; Pome County; rdo rje chus (spo bo rdzong)
G4233,dbang drag rol pa'i dga' tshal/,,,加查县; Gyatsha county; rgya tsha rdzong /; chos 'khor rgyal khul/
G4366,ru ngar dgon/,,,bsang chu rdzong /; 夏河县
G2272,'bri ra phug dgon/,,,dge rgyas rdzong /; Gegye county; 革吉县; 'bong pa chus (dge rgyas rdzong)
G1KR46,？; shar dga' gling /,31.29497,102.04847,chu chen rdzong /; 金川县
G2DOMM0022,Ürjin sanag rolwii choilin; u rgyan gsang sngags rol ba'i chos gling /,47.93,107.01,Ulaanbaatar; 乌兰巴托; u lan dpa' thul/; Улаанбаатар
G1804,班前寺; paN chen dgon/,32.7,100.88,paN chen zhang /
G1KR794,噶丹德钦林,28.48333,98.91666,Dechen County; 德钦县; bde chen rdzong /
G1PD110069,gsang sngags chos gling /,,,sikkim; 'bras ljongs/
G1709,赛支寺; Serdi Gonden Tashi Choling; ser dris dgon/,36.08823,102.54711,化隆回族自治县; ba yan rdzong /
G1KR1760,德庆觉美林; bde chen 'gyur med gling /,31.18333,87.41666,Nyima county; nyi ma rdzong /; 尼玛县
G3470,gnyal gra 'or/; gra 'or dgon,,,gnyal/; gnyal sde drug
G1KR706,thub bstan nyi shar dgon/; 土登尼夏林寺,29.43333,99.06667,'ba' thang rdzong /; Batang county; 巴塘县
G3937,'bum rnying dgon/; 蒙宜寺,33.01667,98.15,ser shul rdzong /; Seshul county; 石渠县
G1KR1186,lha lung dgon/; 拉龙寺,32.366277,94.789997,steng chen rdzong /; Tengchen County; 丁青县
G1PD96088,山城沟寺; hran khrin dgu zi/,36.55494,102.26,乐都县; gro tshang rdzong /
G1KR2246,广福寺; kong h+phu zi/,36.85,102.03,Gonlung; dgon lung rdzong /; 互助县
G4099,spu pa rong dgon pa/; 比贡寺,30.23333,100.78333,nyag chu rdzong /; 雅江县; Nyakchu county
G2936,brag dgon/,,,波密县; spo bo rdzong /; Pome County; rdo rje chus (spo bo rdzong)
G1596,'brog khang dgon/; 竹公寺,30.96667,100.31667,nyag rong rdzong /; 新龙县; Nyakrong county
G1KR2767,阿涅寺; a nye dgon pa/,33.80465,97.13766,称多县; khri 'du rdzong /
G1PD95989,李家红滩寺; li kya hong than zi/,36.22676,102.96303,民和县; bka' ma log rdzong /
G3,g.yung drung gling dgon/; 雍仲林寺,29.360014,89.647113,rnam gling rdzong /; 南木林县; Namling County; 'o yug
G1805,吉德寺; rgyud sde dgon/,32.7,100.88,paN chen zhang /
G1738,stong skyabs dgon/,,,甘德县; dga' bde rdzong /; stong skyabs zhang /
G2648,孔来寺; 'khang le dgon/,32.56462,96.23195,nang chen rdzong /; 囊谦县; Nangchen County
G2706,当头寺; 'dam thog dgon/,32.84673,97.14666,yul shul rdzong /; 玉树县
G2888,gangs gling ri khrod/,,,波密县; spo bo rdzong /; Pome County; g.yu ri/; g.yu ri chus (spo bo rdzong)
G529,'dzam thang dgon pa/,,,
G3525,yar rje o rgyan gling /; 乌坚林寺,29.11095,91.26423,grwa nang rdzong /; Dranang county; 扎囊县
G1KR1455,spyan g.yas dgon pa/; 建叶寺,28.97897,91.51028,'phyong rgyas rdzong /; Chongye county; 琼结县
G3947,温波寺; dbon po dgon/,32.86666,98.68333,ser shul rdzong /; Seshul county; 石渠县
G1KR2640,bkra lo dgon pa/; 扎洛寺,32.76,100.8,班玛县; pad+ma rdzong /; Pema county
G1KR1097,卡来寺,30.68333,98.36667,贡觉县; Gongjo County; go 'jo rdzong /
G1KR2730,龙青寺; gling chen dgon pa/,33.46537,96.63644,yul shul rdzong /; 玉树县
G4186,drug ral dgon/,,,lho brag rdzong /; 洛扎县; Lhodrag county; ban pa/
G4053,pa bam dgon/,,,rong brag rdzong /; Rongdrak county; 丹巴县
G373,重孜寺; 'brong rtse dgon/,29.01667,89.45,myang stod/; rgyal rtse rdzong /; 江孜县; Gyangtse county
G1KR2872,多察日寺; rto khra ris dgon pa/,32.07319,96.01598,nang chen rdzong /; 囊谦县; Nangchen County
G1KR753,新街寺; shing bcangs dgon/,28.4,99.26667,sde rong rdzong /; 得荣县; Derong county
G1KR2843,赛佐强寺; gze rdzogs khyam dgon/,31.86793,96.16168,nang chen rdzong /; 囊谦县; Nangchen County
G1KR2432,郭拉卡寺; sgo la kha dgon pa/,35.51,101.96,同仁县; Rebkong County; reb gong rdzong /
G3840,木娘寺; mi mya dgon/,31.55,100.88333,brag 'go rdzong /; 炉霍县; Drakgo county
G1626,mtsho kha dgon/; 措卡寺,30.76667,100.16666,nyag rong rdzong /; 新龙县; Nyakrong county
G2729,热拉寺; re bla dgon/,32.30783,95.58526,nang chen rdzong /; 囊谦县; Nangchen County
G1KR2002,rang gong ma dgon/; 绕贡玛寺,34.06881,103.4953,迭部县; the bo rdzong /
G1GS141053,kha ba drug gi dgon pa/,,,
G2659,乃多寺; gnas mdo dgon/,32.9846,95.72466,ngom yul/; 杂多县; rdza stod rdzong /
G3821,brda go dgon/,,,dpal yul rdzong /; Palyul county; 白玉县
G2889,mdangs kyog ri khrod/,,,波密县; spo bo rdzong /; Pome County; g.yu ri chus (spo bo rdzong)
G2623,赛佐强寺; gze rdzogs khyam dgon/,,,nang chen rdzong /; 囊谦县; Nangchen County
G1KR2112,金佛寺; dga' ldan bstan rgyas gling /,36.68,101.26,湟源县; stong skor rdzong /
G1KR16,bya dur dga' mal dgon/; 尕米寺,32.82048,103.64088,zung chu rdzong /; 松潘县
G1KR2517,bde chen dgon/; 德庆寺,35.14282,100.65,同德县; gad pa sum mdo rdzong /
G2687,多吉寺; stobs bcu dgon/,32.78317,95.63394,杂多县; rdza stod rdzong /
G1KR1098,根果寺,30.68333,98.36667,贡觉县; Gongjo County; go 'jo rdzong /
G4846,帮当寺; spang gdong dgon/,33.75477,104.25096,舟曲县; 'brug chu rdzong /
G4052,brag steng phun tshogs gling /,,,rong brag rdzong /; Rongdrak county; 丹巴县
G1KR146,帐房寺; 'dzam thang sku 'bum dgon/,31.87286,101.34212,'dzam thang rdzong /; 壤塘县
G1KR1579,曲鲁贡萨寺; chos lung dgon gsar/,29.4,87.3,ngam ring rdzong /; Ngamring county; 昂仁县
G1KR1607,章白坚寺; grangs ped can/,29.06667,89.28333,pa snam rdzong /; 白朗县; Panam County
G1925,道贺丹寺; rtogs ldan dgon/,35.11006,99.71037,兴海县; rtsi gor thang rdzong /
G1KR786,杂郭寺,27.55,99.81667,香格里拉县; Gyeltang County; sems kyi nyi zla rdzong /
G1KR1147,江普寺; ljang phu bon dgon/,31.197684,95.872908,steng chen rdzong /; Tengchen County; 丁青县
G3793,phyug mo dgon/; 曲木寺,30.01667,101.53333,康定县; Dardo county; dar mdo rdzong /
G1IC0010,Garan Juu; Γaran juu; 隆福寺,,,mkhar sngon grong khyer; Kökeqota; Kökeqota; 呼和浩特市
G1861,rkang tsha gong ma dgon/,,,khri ka rdzong /; 贵德县
G3648,yon tan 'byung khungs/,,,
G1KR239,mda' chen dgon/; 达金寺,33.42878,103.36401,mdzod dge rdzong /; 若尔盖县
G1KR1099,根沙寺,30.68333,98.36667,贡觉县; Gongjo County; go 'jo rdzong /
G1KR1497,嘎布东甸寺; dkar po gdung rten/,28.23694,92.45037,mtsho sna rdzong /; Tsona county; 错那县
G1882,千卜录寺; 'khyams ru dgon/,36.35997,100.46913,共和县; chab cha rdzong /
G1PD95981,无量寺; ba'u lang zi/,36.34274,102.78425,民和县; bka' ma log rdzong /
G4050,'bru smin theg chen gling /,,,rong brag rdzong /; Rongdrak county; 丹巴县
G3649,rtsa red dgon/,,,
G2754,u pe dgon/; Upe Gon,,,舟曲县; 'brug chu rdzong /
G2887,dag rdzong ri khrod/,,,波密县; spo bo rdzong /; Pome County; g.yu ri chus (spo bo rdzong)
G2621,日朝寺; ri khrod dgon/,,,nang chen rdzong /; 囊谦县; Nangchen County
G4183,bo dong dgon chung /,,,lho brag; 'phyong rgyas rdzong /; Chongye county; 琼结县; lho brag rdzong /; 洛扎县; Lhodrag county
G1KR2641,dpal sde dgon pa/; 华德寺,32.76,100.8,班玛县; pad+ma rdzong /; Pema county
G3985,'bum lung dgon/; 孟龙寺,32.63334,99.73333,gser thar rdzong /; 色达县; Serta county
G1835,毕家寺; Bikya Dratsang; bis kyA grwa tshang /,36.01335,101.40151,khri ka rdzong /; 贵德县
G1689,Derge Druk Gon Wokmin Jampa Chokorling; 'brug dgon/,,,sde dge rdzong /; 德格县; Derge County
G3929,巨木寺; 'ju mang dgon/,32.96667,98.08334,ser shul rdzong /; Seshul county; 石渠县
G171,bkra shis chos gling /,,,
G3951,bo rod dgon/,,,ser shul rdzong /; Seshul county; 石渠县
G1KR2721,a 'byung dgon pa/; 安云寺,33.25157,96.27268,yul shul rdzong /; 玉树县
G1948,尕楞寺; Garing Gon; ka ring dgon/,35.76,102.28,循化县; ya rdzi rdzong /; kha ba drug gi dgon pa/
G1PD96001,宝刚寺; po kong zi/,36.12912,102.80357,民和县; bka' ma log rdzong /
G1KR41,卡拉寺,31.82512,101.52894,chu chen rdzong /; 金川县
G1PD96090,甘沟寺; kan dgu zi/,36.56813,102.2205,乐都县; gro tshang rdzong /
G1KR1235,宗沙寺,30.5,98.2,brag g.yab rdzong /; 察雅县; Drakyap County
G3512,pha dam pa sangs rgyas kyi dgon pa/; 帕丹巴桑杰寺,29.27729,91.10723,gong dkar rdzong /; Gongkar county; 贡嘎县
G1KR763,?; yu bi ri khrod/,28.11667,101.23333,mu li rdzong /; 木里县; Muli county
G3864,gangs dkar dgon/; 贡噶岭寺,28.66667,100.25,'dab pa rdzong /; 稻城县; Dabpa county
G3958,phug khang dgon/,,,石渠县; rdza chu kha rdzong /
G1KR2753,代东寺; gter ston zi/,32.88566,93.97278,杂多县; rdza stod rdzong /
G1731,dgu ri dgon/,,,玛沁县; rma chen rdzong /; rta bo zhol ma zhang /
G3161,klu dgon pa/,,,
G3935,东嘎寺; ser shul dung dkar dgon/,33.41667,98.01667,ser shul rdzong /; Seshul county; 石渠县
G271,德千寺; la mo bde chen dgon/; Lamo Dechen Gon,35.86,101.94446,gcan tsha rdzong /; 尖扎县
G1KR1236,德松寺,30.5,98.2,brag g.yab rdzong /; 察雅县; Drakyap County
G2627,擦伊寺; 'phrul zhig dgon/,,,nang chen rdzong /; 囊谦县; Nangchen County
G4056,'bras stod dgon/,,,rong brag rdzong /; Rongdrak county; 丹巴县
G2930,rmig dgon/,,,波密县; spo bo rdzong /; Pome County; sum 'dzoms chus (spo bo rdzong)
G1KR1999,kha pa klung dgon/; 卡巴路寺,33.99536,103.49321,迭部县; the bo rdzong /
G1KR2470,多杰宗寺; rdo rje rdzong dgon/,35.24027,101.81,rtse khog rdzong /; 泽库县
G1KR2091,沙尔湾寺; hrar ban zi/,36.35421,101.83345,湟中县; sku 'bum rdzong /
G4189,bsam 'grub dgon/,,,lho brag; lho brag rdzong /; 洛扎县; Lhodrag county
G1917,赛宗寺; brag dkar sprel rdzong dgon/,35.50984,99.80158,兴海县; rtsi gor thang rdzong /
G1PD96296,比仑寺; spel lung sgrub sde/,35.61175,102.69683,循化县; ya rdzi rdzong /
G409,贡嘎寺; gangs dkar dgon/,29.46667,101.53333,康定县; Dardo county; dar mdo rdzong /
G3638,seng ri dgon/; 生日寺,31.36667,99.1,dpal yul rdzong /; Palyul county; 白玉县
G1KR1717,卡龙寺,31.4,89,shan rtsa rdzong /; Shantsa county; 申扎县
G3295,gu ru dgon/,,,snye mo rdzong /; 尼木县; Nyemo county; gzhu smad shang (snye mo rdzong)
G1732,dung ri dgon/,,,甘德县; dga' bde rdzong /; skyang chad zhang /
G1KR818,dgon pa gsar ri khrod/; ？,29.68946,91.08158,lha sa/; Lhasa; 拉萨
G1865,khri ka dgon gsar dgon/; Trika Gonsar Rinchen Gepeling,,,khri ka rdzong /; 贵德县
G1KR1343,lhun grub chos ldings gling /; 孜托寺,30.75,95.83334,Lhorong county; 洛隆县; lho rong rdzong /
G4082,gzings 'gul dgon/; 生更寺,29.4,101.08334,nyag chu rdzong /; 雅江县; Nyakchu county
G1KR38,khyung dgon/; 琼俄寺,31.73632,101.70994,chu chen rdzong /; 金川县
G390,rtag brtan phun tshogs gling /; 彭措林寺,29.368129,88.002188,lha rtse rdzong /; 拉孜县; Lhatse county
G2677,乃庆改寺; gnas chen dge dgon/,33.10206,96.29585,yul shul rdzong /; 玉树县
G1KR384,黑金寺; gzhu ring dgon/,31.21667,100.83334,brag 'go rdzong /; 炉霍县; Drakgo county
G1KR1003,崩亚寺,32.06667,97.3,昌都县; chab mdo rdzong /; Chamdo county
G1KR2912,阿什旦参康; a brtan mtshams khang /,36.13045,98.38606,都兰县; tu'u lan rdzong /
G1KR2688,结古寺; skye rgu dgon/; Jyegu Dondrub Ling,33.00975,97.01756,yul shul rdzong /; 玉树县
G1KR1237,班觉寺,30.5,98.2,brag g.yab rdzong /; 察雅县; Drakyap County
G1KR1291,dbyibs pa dgon/; 友巴寺,29.474348,97.661676,左贡县; Zogang County; mdzo sgang rdzong /
G287,Samye Gonpa; 桑耶寺; bsam yas dgon pa/,29.32808,91.5069,grwa nang rdzong /; Dranang county; 扎囊县
G4188,sgro ba dgon pa/,,,lho brag rdzong /; 洛扎县; Lhodrag county
G4055,pa spar hra la dgon/,,,rong brag rdzong /; Rongdrak county; 丹巴县
G1KR765,le wa dgon/; liewa gun,27.83333,101.26667,mu li rdzong /; 木里县; Muli county
G1KR2331,bis ca la ka zi/; weijia laka si,35.96,102.63891,化隆回族自治县; ba yan rdzong /
G1KR67,klu bzod dgon/; 洛若寺,32.16845,103.14468,khro chu rdzong /; 黑水县
G1KR34,mthun lung dgon/; 达尔基寺; Thunlung monastery,31.63163,101.43509,chu chen rdzong /; 金川县
G1862,rkang tsha zhol ma dgon/,,,khri ka rdzong /; 贵德县
G1582,yang dben dgon/; 牙窝寺,31.46667,100.11667,nyag rong rdzong /; 新龙县; Nyakrong county
G4458,ri bo chos gling /; 日乌曲林,29.16264,91.79367,sne gdong rdzong /; Nedong County; 乃东县
G1KR1004,色然寺,32.06667,97.3,昌都县; chab mdo rdzong /; Chamdo county
G1KR1642,bsam gtan gling dgon/; 桑丹林寺; Samtenling,28.41667,85.36667,skyid grong rdzong /; 吉隆县; Kyirong county
G1KR1438,bum dang /; 奔唐寺,29.14143,91.06952,gong dkar rdzong /; Gongkar county; 贡嘎县
G3992,大章寺; brda tshang dgon/,32.78333,100.05,gser thar rdzong /; 色达县; Serta county
G2625,rtsi rong brag nag dgon/,,,
G2KR46,er te ni jo bo/; 光顯寺; Erdene zuu; Зуу; Эрдэнэ Зуу; *jo bo/,47.20228333,102.83,khal kha/
G3930,蒙格寺; mang dge dgon/,33.01667,98.15,ser shul rdzong /; Seshul county; 石渠县
G1TD13,'chad dkar/,,,
G1863,dgon rong dgon/,,,khri ka rdzong /; 贵德县
G3955,kiHlung dgon/,,,ser shul rdzong /; Seshul county; 石渠县
G1KR47,雍忠拉顶寺; g.yung drung lha lding dgon/,31.32397,102.01732,chu chen rdzong /; 金川县
G3160,kong ru dpal ldan don gling dgon/,,,
G612,chos dpal zhing dgon pa/; 车巴沟寺,34.51464,103.12432,卓尼县; co ne rdzong /
G1KR829,卓德康萨; spro bde khang gsar/,29.65073,91.1302,lha sa/; Lhasa; 拉萨
G4190,rdza dkar dgon/,,,lho brag rdzong /; 洛扎县; Lhodrag county
G3654,brag rdzong dgon/,,,
G1KR1910,祝贡寺; 'bri gung dgon/,37.191944,103.384214,dpa' ris rdzong /; 天祝县
G3787,dkar mdza' ri khrod/,,,康定县; Dardo county; dar mdo rdzong /
G1KR1635,云桥寺; sprin zam dgon/,27.95,89.1,gro mo rdzong /; 亚东县; Dromo county
G1KR1222,根妥寺,30.56667,97.78333,brag g.yab rdzong /; 察雅县; Drakyap County
G2LS529,zhi sde lha sde dgon/; 协德拉德寺,30.24,81.19,spu hreng rdzong /; Purang county; 普兰县
G1PD95784,Tsongkha Tsechen Monastery; 宗喀大慈宏觉寺; tsong kha brtse chen dgon/,36.61,101.78,西宁市; zi ling grong khyer/
G2604,买庆改寺; mer chen dge dgon/,32.25581,96.47147,nang chen rdzong /; 囊谦县; Nangchen County
G197,dwags lha sgam po/; 达拉岗布寺,29.13379,92.78193,加查县; Gyatsha county; rgya tsha rdzong /
G2892,gtsang pa rgya ras sku 'bum/,,,波密县; spo bo rdzong /; Pome County; g.yu ri chus (spo bo rdzong)
G398,拉加寺; rwa rgya dgon/,34.68,100.65,玛沁县; rma chen rdzong /; rwa rgya zhang /
G3926,尼宗寺; nyin rdzong dgon/,32.51667,97.85,ser shul rdzong /; Seshul county; 石渠县
G2655,海日寺; he ru dgon/,32.10545,95.93574,nang chen rdzong /; 囊谦县; Nangchen County
G1KR2223,妈圈拉康; ma chon lha khang /,36.6,102.08,Gonlung; dgon lung rdzong /; 互助县
G1KR70,bo'i 'ur dgon/; 维尔寺,32.19537,103.19668,khro chu rdzong /; 黑水县
G1KR289,gshen rab gling dgon/; 新周郎寺,31.23333,101.51667,rong brag rdzong /; Rongdrak county; 丹巴县
G176,nag yangs dgon pa gong ma/,,,a mdo/
G1631,格日寺; ge rong dgon/,30.56667,100.31667,nyag rong rdzong /; 新龙县; Nyakrong county
G1KR810,bkra shis rab brtan gling /; 兰经寺,27.23333,99.3,Balung County; 'ba' lung rdzong /; 维西县
G1PD96093,nan hran zi/; 南山寺,36.44998,102.46307,乐都县; gro tshang rdzong /
G00AG01624,拉扎寺; zang zang lha brag dgon/,29.45,86.6,ngam ring rdzong /; Ngamring county; 昂仁县; zang zang /
G3655,yon tan phun tshogs dgon/,,,
G3788,nA tha dgon/,,,康定县; Dardo county; dar mdo rdzong /
G1IC0007,dge skyid gling; Qosigunu Juu; Qosiγun-u juu; Nikton hûturingga juktehen,,,mkhar sngon grong khyer; Kökeqota; Kökeqota; 呼和浩特市
G178,mA this dgon/,,,
G3005,都兰寺; gter lam dgon pa/,37.03444,98.65384,都兰县; tu'u lan rdzong /
G3082,sbyor ra dgon/; Jora; 觉拉寺,28.20194,92.36406,mtsho sna rdzong /; Tsona county; 错那县
G2893,yangs dgon/,,,波密县; spo bo rdzong /; Pome County; g.yu ri chus (spo bo rdzong)
G2719,赛甫寺; seb phu dgon/,33.13041,97.36721,称多县; khri 'du rdzong /
G177,nag yangs dgon pa 'og ma/,,,
G4045,thub bstan phan bde gling /; 盘德寺,30.78333,101.75,rong brag rdzong /; Rongdrak county; 丹巴县
G1IC0006,yun dga' gling; Corjiyin Juu; Corji-yin juu; Urgun be enteheme obure juktehen; 巧爾氣召,,,mkhar sngon grong khyer; Kökeqota; Kökeqota; 呼和浩特市
G3652,na bun dgon/,,,
G3861,冲古寺; mtsho mgo dgon/,28.56667,100.35,稻城三神山; gangs dkar rigs gsum mgon po/; 'dab pa rdzong /; 稻城县; Dabpa county
G1KR2096,贾尔藏寺; rgya rdzong ri phrod/,36.3967,101.69294,湟中县; sku 'bum rdzong /
G1KR1498,卡达寺; mkhar ltag,28.06745,92.34967,mtsho sna rdzong /; Tsona county; 错那县
G1KR1090,卓珍寺,30.68333,98.36667,贡觉县; Gongjo County; go 'jo rdzong /
G2CN10948,bsam gtan dgon/; 桑丹寺,31.67094,103.13966,li xian; bkra shis gling rdzong /; 理县
G2066,'chad kha dgon/; 怯喀寺,29.82363,91.86028,mal gro gung dkar rdzong /; Medro Gongkar County; 墨竹工卡县; bya ra mdo shang /
G4415,kun ra dgon/,,,snye mo rdzong /; 尼木县; Nyemo county; gzhu smad shang (snye mo rdzong); gzhu nang /
G1KR1560,Peser; pe ser/,28.63333,87.85,sa skya rdzong /; Sakya county; 萨迦县
G1KR2020,tA ka dgon/; 达嘎寺,33.96925,103.89343,迭部县; the bo rdzong /
G481,ser lo dgon pa/,,,so lu khum bu/; solukhumbu
G1KR1031,rab brtan dgon/; 饶登寺,31.93333,98.4,Joda County; 'jo mda' rdzong /; 江达县
G2673,布玛拉仓寺; bung ma bla tshang dgon/,33.08016,94.19936,杂多县; rdza stod rdzong /
G3217,rme dgon pa/,,,rka khog rdzong /; 红原县
G1748,阿绕寺; a bzod dgon/,33.73,100.56,sbra gsar zhang /
G2251,色瓦龙寺; se ba lung dgon/,30.69,81.6,spu hreng rdzong /; Purang county; 普兰县
G2891,be thang dgon/,,,波密县; spo bo rdzong /; Pome County; g.yu ri chus (spo bo rdzong)
G3513,bdun phud chos 'khor/; 顿配曲果寺,29.25965,91.15054,gong dkar rdzong /; Gongkar county; 贡嘎县
G1KR791,翁上密承院,28.51667,99.6,香格里拉县; Gyeltang County; sems kyi nyi zla rdzong /
G1KR1091,奴寺,30.68333,98.36667,贡觉县; Gongjo County; go 'jo rdzong /
G246,拉孜寺; Ganden Woseling; lha rtse dga' ldan chos gling /,29.15,87.68333,lha rtse rdzong /; 拉孜县; Lhatse county
G1KR1692,嘎日寺; dga' ri dgon/,31.196862,93.733782,Biru county; 'bri ru rdzong /; 比如县
G4547,ze kha dgon/,,,迭部县; the bo rdzong /
G1KR2528,麻巴俄康; smad pa sngags khang /,36.05,101.4822,khri ka rdzong /; 贵德县
G1KR2665,布冬寺; bu don dgon pa/,33.28,100.43,达日县; dar lag rdzong /
G1KR1801,域寺; yul dgon pa/,32,79.3,rtsa mda' rdzong /; 札达县; Tsada County
G1KR1038,青棵寺,32,98.03333,Joda County; 'jo mda' rdzong /; 江达县
G1KR2448,桑主寺; Sangdrok; gsang sgrog bde chen dgon/,35.96088,101.82648,gcan tsha rdzong /; 尖扎县
G3658,klu mo dgon/,,,nyag rong rdzong /; 新龙县; Nyakrong county
G11MS147,rta nag rdo rje gdan/,,,rta nag lung pa/
G1KR2101,尕住寺; pha bzhi ri khrod/,36.61723,101.45164,湟中县; sku 'bum rdzong /
G00AG01621,yar 'brog yon po dgon/,,,yar 'brog; lho brag rdzong /; 洛扎县; Lhodrag county
G2896,dung mdung dgon/,,,波密县; spo bo rdzong /; Pome County; shul mo chus (spo bo rdzong)
G2539,岗察寺; rkang tsha dgon chen/; Kangtsa Gon Ganden Chopeling,37.53525,100.13,rkang tsha rdzong /; 刚察县
G1KR1092,多宗寺,30.68333,98.36667,贡觉县; Gongjo County; go 'jo rdzong /
G1633,rab rgyas dgon/; 如几寺,30.78333,100.16666,nyag rong rdzong /; 新龙县; Nyakrong county
G3230,齐哈玛寺; chu kha ma'i dgon/,33.3994,101.94958,rma chu rdzong /; 玛曲县
G1KR2419,夏卜浪寺; sha sbrang dgon/,35.63112,102.03,同仁县; Rebkong County; reb gong rdzong /
G350,mtshar steng ri khrod/,,,yar klungs/
G1844,加毛寺; Jamo Dratsang Delek Choling; 'ja' mo grwa tshang /,35.89482,101.38,khri ka rdzong /; 贵德县
G3962,'dan bkra shis rnam rgyal gling /,,,ser shul rdzong /; Seshul county; 石渠县; rdza chu kha rdzong /
G2637,东囊拉庆寺; stong nag bla chen dgon/,32.33588,95.54302,nang chen rdzong /; 囊谦县; Nangchen County
G3799,司库寺; se'u dgon/,29.46667,101.53333,康定县; Dardo county; dar mdo rdzong /
G2LS589,rtsa rang blos btang dgon/,,,rtsa mda' rdzong /; 札达县; Tsada County
G3659,rgyal sras dgon/,,,
G2897,ldem thog dgon/,,,波密县; spo bo rdzong /; Pome County; shul mo chus (spo bo rdzong)
G1KR1762,'om bu bsam gtan gling /; 文布寺,31.341992,86.759005,Nyima county; nyi ma rdzong /; 尼玛县
G00AG01620,lho brag gu ru lha khang /,,,lho brag rdzong /; 洛扎县; Lhodrag county
G2631,bla khyab dgon/; 拉恰寺,,,nang chen rdzong /; 囊谦县; Nangchen County
G1DOMM0029,Nartad Daginiin khural,47.9,106.9,Ulaanbaatar; 乌兰巴托; u lan dpa' thul/; Улаанбаатар
G1KR1094,科青寺,30.68333,98.36667,贡觉县; Gongjo County; go 'jo rdzong /
G1KR1093,曲吉寺,30.68333,98.36667,贡觉县; Gongjo County; go 'jo rdzong /
G1KR358,bsam grub dgon/; 桑珠寺,30.61667,101.03333,rta'u rdzong /; 道孚县; Tawu county
G1KR2240,桦林噶尔哇拉康; hu lin gar ba lha khang /,36.78335,102.10143,Gonlung; dgon lung rdzong /; 互助县
G3538,mkhar sna dgon/; 喀纳寺,29.44458,89.49963,rnam gling rdzong /; 南木林县; Namling County; 卫藏; U-Tsang; dbus gtsang /
G1KR1896,江色寺,28.45,97.06667,察隅县; Zayul county; rdza yul rdzong /
G1KR158,ri nang gnas chen dgon/; 日朗寺,32.34598,100.65038,'dzam thang rdzong /; 壤塘县
G4192,byang chub gling /,,,gru shul/
G1KG17626,ta po dgon/; Tabo Monastery,,,Spiti; spi ti lcog
G1KR30,thugs rje chen po'i dgon/; 观音寺,31.80986,101.63544,chu chen rdzong /; 金川县
G1KR1095,然果寺,30.68333,98.36667,贡觉县; Gongjo County; go 'jo rdzong /
G2894,te lo ma dgon/,,,波密县; spo bo rdzong /; Pome County; g.yu ri chus (spo bo rdzong)
G1PD96297,牙木寺; nya mo sgar/,35.71661,102.61617,循化县; ya rdzi rdzong /
G1KR1718,东热寺,31.01667,89.08334,shan rtsa rdzong /; Shantsa county; 申扎县
G1KR2531,阿什贡俄康; a skong sngags khang /,36.11008,101.601,khri ka rdzong /; 贵德县
G1KR1991,rta 'dogs dgon/; 当多寺,34.22424,103.04952,迭部县; the bo rdzong /
G2587,来叶拉则寺; klu yul lha rtse dgon/,33.43962,96.68253,yul shul rdzong /; 玉树县
G2GS1153,a rig ang le dgon/,,,sde dge rdzong /; 德格县; Derge County
G1KR2706,热艾寺; ra geb dgon pa/,32.35105,97.23308,yul shul rdzong /; 玉树县
G4419,rta 'ur dgon/,,,snye mo rdzong /; 尼木县; Nyemo county; gzhu smad shang (snye mo rdzong)
G1KR2844,bag nag dgon pa/; 邦囊寺,31.87423,96.12847,nang chen rdzong /; 囊谦县; Nangchen County
G354,dge phan byang chub gling /,,,Nagchu County; nag chu rdzong /; 那曲县; nag chu kha/
G3657,ja zur dgon/,,,
G1PD95984,史家佛寺; hri kya'i mchod khang /,36.32999,102.84455,民和县; bka' ma log rdzong /
G1KR1180,白登寺,31.6,95.08334,steng chen rdzong /; Tengchen County; 丁青县
G1KR2546,贵德文昌庙; khri ka'i yul lha lha khang /,36.03,101.35781,khri ka rdzong /; 贵德县
G1KR1096,俄然寺,30.68333,98.36667,贡觉县; Gongjo County; go 'jo rdzong /
G1KR106,'od zer dgon/; 恩泽寺,31.86159,101.7041,马尔康县; Barkham County; 'bar khams rdzong /
G1KR2108,la sar dgon chung /; 拉沙尕寺,36.73,101.38,湟中县; sku 'bum rdzong /
G3950,巴若寺; ba rod dgon/,33.38334,97.8,ser shul rdzong /; Seshul county; 石渠县
G1KR2926,kru'u khyung zi/; 舟群寺,37.57363,99.342,天峻县; them chen rdzong /
G4418,o rgyan dgon/,,,snye mo rdzong /; 尼木县; Nyemo county; gzhu smad shang (snye mo rdzong)
G2649,买土改寺; rmad mthil dge dgon/,32.5539,96.06124,nang chen rdzong /; 囊谦县; Nangchen County
G2AG31,byang chub dpal ri dgon pa/,,,
G4623,卓瓦龙; spro ba dgon/,28.17588,91.30807,lho brag rdzong /; 洛扎县; Lhodrag county
G458,kha sgang o bso dgon/,36.01201,102.111766,gcan tsha rdzong /; 尖扎县
G1KR694,dgon gsum nor bu gling /; 共桑洛布林寺,29.63333,100.45,li thang rdzong /; 理塘县; Litang county
G1KR2584,五一活动点; rtse dung sngags khang /,36.09643,99.86951,兴海县; rtsi gor thang rdzong /
G3476,lung ra chen mo/,,,gnyal/; lhun rtse rdzong /; Lhuntse county; 隆子县
G1BL15,brag dmar dgon pa,29.150239,83.171342,bal yul/; 尼泊尔; nepal; dol po
G4731,科才寺; kho tshe sgar/,34.65051,102.22941,Gannan Prefecture; kan lho rang skyong khul/; 甘南州
G488,shar yel phug,,,
G1KR1465,洛曲德寺; klog chos sde dgon/,28.92751,92.16592,chu gsum rdzong /; Chusum county; 曲松县
G4865,'a zha yar spungs dgon/; 雅黄寺,33.83872,103.7752,迭部县; the bo rdzong /; 'a zha zhang /
G2CN11138,smer phu dgon/,29.127898,83.201695,bal yul/; 尼泊尔; nepal
G1KR2673,尖姆寺; lcam sgon pa/,33.53,100.93,久治县; gcig sgril rdzong /
G1KR1712,卓古寺,31.98333,91.71667,Amdo county; a mdo rdzong /; 安多县
G389,拉隆寺; lha lung dgon/,28.38112,90.71995,lho brag rdzong /; 洛扎县; Lhodrag county
G1855,苟后扎寺; 'gag bza' grwa tshang /,35.93186,101.46082,khri ka rdzong /; 贵德县
G4675,dngul rwa dgon/,,,
G1KR1897,通庆寺,29.01667,97.95,察隅县; Zayul county; rdza yul rdzong /
G1KR1359,thub bstan dar rgyas gling /; 土登达吉林寺,30.93333,95.56667,Lhorong county; 洛隆县; lho rong rdzong /
G3210,rgya ston dgon/,,,
G1BR043,Sulutsky Datsan,52.088116,108.371599,Buryatia
G356,chas pa kong bu nang dgon/,,,Gannan Prefecture; kan lho rang skyong khul/; 甘南州
G489,sman lung dgon pa/,,,yar klungs/
G2LS545,lhag pa dgon/; 拉巴寺,31.95,79.25,rtsa mda' rdzong /; 札达县; Tsada County
G2565,休马寺; shul ma dgon/,33.40897,97.28081,称多县; khri 'du rdzong /
G1PD96140,多达寺; ba yan stod th'i dgon pa/,36.14186,102.26928,化隆回族自治县; ba yan rdzong /; ba yan/
G4674,bkra shis thos bsam gling /,,,迭部县; the bo rdzong /
G2530,卡加旧寺; kha gya'i sgar rnying /; Khagya Garnying Gon,35.06531,102.88647,bsang chu rdzong /; 夏河县; Gannan Prefecture; kan lho rang skyong khul/; 甘南州; kha gya smad zhang (bsang chu rdzong)
G3991,'brong ri dgon/; 竹日寺,32.2,100.28333,gser thar rdzong /; 色达县; Serta county
G1PD110068,bkra shis sdings/,,,sikkim; 'bras ljongs/
G1KR198,dgon sar dgon/; 根沙寺,32.72454,102.04057,阿坝县; rnga ba rdzong /
G3211,o rgyan gling /,,,
G3768,brag g.yab bu dgon/,30.574088,97.973817,
G2048,ru thog dgon/; 日多寺; Rutok Gon,29.71194,92.15658,mal gro gung dkar rdzong /; Medro Gongkar County; 墨竹工卡县; ru thog shang (mal gro gung dkar)
G1PD96003,glang ba'o zi/; 狼窝寺,36.07176,102.7329,民和县; bka' ma log rdzong /
G224,rdzong dkar dgon/,,,
G2LS588,bye dkar lha yul dgon/,,,rtsa mda' rdzong /; 札达县; Tsada County
G1KR2426,木合沙下寺; dmu gsal sgar 'og ma/,35.43186,101.91106,同仁县; Rebkong County; reb gong rdzong /
G00AG01623,stod nub dgon/; Tonub Gon,,,la stod byang khri skor/
G1720,阿什姜贾贡寺; a skyong yar thang dgon/,32.9,100.78,lcags ri thang zhang /
G1KR1853,达则寺; stag rtse g.yung drung gling /,29.535207,94.478407,林芝县; nying khri rdzong /; Nyingtri county
G4673,chos rje dgon pa/,,,mdzod dge rdzong /; 若尔盖县
G4540,dbang bzang zhang /,,,迭部县; the bo rdzong /
G1KR999,拉丁寺,31.75,97.01667,昌都县; chab mdo rdzong /; Chamdo county
G1KR51,ta we dgon/; 达维寺,30.96832,102.63868,btsan lha rdzong /; 小金县
G4108,古鲁寺; sku nub dgon/,30.5,101.43333,rta'u rdzong /; 道孚县; Tawu county
G1KR2000,nying sgam dgon/; 娘岗寺,34.01253,103.44867,迭部县; the bo rdzong /
G1PD96091,芦花寺; lo dkar dgon/,36.56,102.63,乐都县; gro tshang rdzong /
G1KR2425,木合沙噶尔寺; dmu gsal sgar gong ma/,35.43186,101.91106,同仁县; Rebkong County; reb gong rdzong /
G2CN11140,yang ston dgon pa/,29.43081,82.907577,bal yul/; 尼泊尔; nepal
G1KR1659,夏荣寺,31.53333,92.73333,Nagchu County; nag chu rdzong /; 那曲县
G1851,上篮角俄康; lan 'gro gong ma'i sngags khang /,35.92498,101.48728,khri ka rdzong /; 贵德县
G1DOMM0027,Baruun Geser süm,47.92,106.88,Ulaanbaatar; 乌兰巴托; u lan dpa' thul/; Улаанбаатар
G361,ha'o dgon pa/; Hawo Monastery; 皓寺,29.3,89.43212,gzhis ka rtse/; 桑珠孜区(2014); Shikatse City (1986-2014)
G108,'bras spungs dgon/; 哲蚌寺; Drepung Monastery,29.67623,91.04701,lha sa/; Lhasa; 拉萨
G4369,'bar ma dgon (nang chen),,,
G1KR1301,色志寺,29.21667,98.85,smar khams rdzong /; 芒康县; Markham county
G1KR1623,拉其寺; la phyi dgon pa/,28.23333,89.41666,khang dmar rdzong /; 康马县; Kangmar county
G1KR1176,林宗寺,31.53333,95.26667,steng chen rdzong /; Tengchen County; 丁青县
G359,gha rung chos sde/,,,
G1KR2424,dmu gsal sgar/; 木合沙噶尔寺,35.43186,101.91106,同仁县; Rebkong County; reb gong rdzong /
G1BR003,Tsugolsky datsan,51.045556,115.627222,Buryatia
G392,Wukpa Lung Monastery; 邬巴砻寺; 'ug pa lung dgon/,29.28,89.08,gzhis ka rtse/; 桑珠孜区(2014); Shikatse City (1986-2014)
G2CN11135,木荣寺; smon rgyal bla brang /,,,steng chen rdzong /; Tengchen County; 丁青县
G1PD96299,ngo ma'i sgar/; 吾曼寺,35.68605,102.65,循化县; ya rdzi rdzong /
G1DOMM0022,bya rung kha shor/; Tsagaan suwragiin khural,47.92,106.88,Ulaanbaatar; 乌兰巴托; u lan dpa' thul/; Улаанбаатар
G1DOMM0028,Choijin lamiin süm; brtse 'phel gling /,47.9,106.92,Ulaanbaatar; 乌兰巴托; u lan dpa' thul/; Улаанбаатар
G2585,安云寺; a 'byung dgon/,,,yul shul rdzong /; 玉树县
G4046,伍都妙寺; 'o dhi dgon/,31.23333,101.51667,rong brag rdzong /; Rongdrak county; 丹巴县
G4546,gtso tshang dgon/,,,迭部县; the bo rdzong /
G4413,gsang sngags pho brang /,,,snye mo rdzong /; 尼木县; Nyemo county; kha ru shang (snye mo rdzong)
G1KR235,gro tshang dgon/; 卓藏寺,33.72416,103.23326,mdzod dge rdzong /; 若尔盖县
G4839,ri dwangs gtsang nyid dgon/; 洛大藏尼寺,33.99399,103.93443,迭部县; the bo rdzong /
G1KR1605,mngon dga' chos sding /; 安嘎曲顶寺,29.7,88.7,bzhad mthong smon rdzong /; Shetongmon county; 谢通门县
G2571,嘎丁寺; zur mang dga' ldan dgon/,32.19479,96.89771,nang chen rdzong /; 囊谦县; Nangchen County
G1641,拉加寺; lha rgyal dgon/; Lhagyal Gon,31.93333,99.21667,sde dge rdzong /; 德格县; Derge County
G3650,go 'gyo dgon/,,,
G1930,尕毛吾寺; Karmo Sangchen Drubpuk Tashi Chokorling; dkar mo mtshams khang /,35.13624,100.33241,同德县; gad pa sum mdo rdzong /
G3783,lcam pa nyi 'od dgon pa/,,,康定县; Dardo county; dar mdo rdzong /
G377,东嘎寺; gro mo dung dkar dgon pa/,27.5,88.91666,gro mo rdzong /; 亚东县; Dromo county
G227,skam skam dgon/; Kamkam Gon,,,mal gro gung dkar rdzong /; Medro Gongkar County; 墨竹工卡县
G2248,'khor chags dgon/; 科加寺,30.19,81.21,spu hreng rdzong /; Purang county; 普兰县; zhing pa chus (spu hreng rdzong)
G4860,白石崖寺; a 'khor dgon/,34.8513,103.20573,卓尼县; co ne rdzong /
G1KR75,bo la dgon/; 莫拉寺,31.92636,102.20537,马尔康县; Barkham County; 'bar khams rdzong /
G172,甘禅寺; kan chen dgon/; Kanchen Gon Tekchen Tarpaling,37.03,102.34372,Gonlung; dgon lung rdzong /; 互助县
G4029,oM brgya'i dgon/; 翁佳寺,28.71667,99.28333,sde rong rdzong /; 得荣县; Derong county
G2KR46,er te ni jo bo/; 光顯寺; Erdene zuu; Зуу; Эрдэнэ Зуу; *jo bo/,47.20228333,102.8433,khal kha/
G1KR174,gnam lcags dgon/; 郎木加寺,32.94027,101.77932,阿坝县; rnga ba rdzong /
G4412,bon po lung dgon/,,,snye mo rdzong /; 尼木县; Nyemo county; kha ru shang (snye mo rdzong)
G4109,skyid snang dgon/,,,rta'u rdzong /; 道孚县; Tawu county
G1KR33,mtsho steng dgon/; 昌都寺,31.56936,101.88718,chu chen rdzong /; 金川县
G1KR2406,尕沙日寺; rka sar dgon/,35.67618,102.03,同仁县; Rebkong County; reb gong rdzong /
G1KR1658,宁布穷仓寺,31.25,92.63333,Nagchu County; nag chu rdzong /; 那曲县
G1DOMM0031,Tövdiin khural,47.92,106.9,Ulaanbaatar; 乌兰巴托; u lan dpa' thul/; Улаанбаатар
G1KR205,gdong ri dgon/; 冻日寺,32.82141,101.84817,阿坝县; rnga ba rdzong /
G4026,rdo bcangs dgon/; 德东寺,28.61667,99.3,sde rong rdzong /; 得荣县; Derong county
G1KR194,gzhu shubs dgon/; 依修寺,32.72222,101.89699,阿坝县; rnga ba rdzong /
G228,Jilpu Gon; spyil phu dgon/,,,mal gro gung dkar rdzong /; Medro Gongkar County; 墨竹工卡县
G3478,pad+ma bkod/,,,gnyal/; bya yul/
G1KR2435,年都乎寺; gnyan thog sgar/,35.55,102.03,同仁县; Rebkong County; reb gong rdzong /
G1DOMM0030,Dar Ekhiin Khural,47.9,106.88,Ulaanbaatar; 乌兰巴托; u lan dpa' thul/; Улаанбаатар
G1IC0008,Rabjiyin Juu; Rabji-yin juu; Amba urgun-i szu; 弘慶寺,,,mkhar sngon grong khyer; Kökeqota; Kökeqota; 呼和浩特市
G3232,欧拉念涛寺; dngul rwa gnyan thog dgon/,34.25134,101.27828,rma chu rdzong /; 玛曲县
G1795,下卡昂寺; mkhar nang gong ma dgon/,32.81,100.28,stag mkhar zhang /
G516,尼根寺; nyin dgon dgon/,30.61667,98.96667,dpal yul rdzong /; Palyul county; 白玉县
G1KR2478,曲格寺; chos sgar dgon/,34.58,101.33,河南蒙古族自治县; rma lho rdzong /
G4864,赛塘寺; gser thang dgon/,34.03657,103.79733,迭部县; the bo rdzong /
G1KR1242,巴日寺,30.23333,98.16666,brag g.yab rdzong /; 察雅县; Drakyap County
G2583,热艾寺; ra geb dgon/,,,yul shul rdzong /; 玉树县
G1KR1622,g.ye dmar dgon/; 艾旺寺,28.46667,89.61667,khang dmar rdzong /; 康马县; Kangmar county
G1PD96005,本康滩寺; 'bum khang thang dgon/,36.02723,102.72875,民和县; bka' ma log rdzong /
G1KR237,苟象寺; rgur skyang dgon/,33.6753,103.35614,mdzod dge rdzong /; 若尔盖县
G1KR64,麻窝寺; ko sba dgon/,32.0654,103.17094,khro chu rdzong /; 黑水县
G4855,khang thog dgon/; 康多寺,35.04823,103.53796,卓尼县; co ne rdzong /
G500,dkar mdzes dgon/; 甘孜寺,31.61667,99.98333,dkar mdzes rdzong /; Kartse County; 甘孜县
G1KR2855,ti lung dgon/; 德隆寺,31.90705,96.14087,nang chen rdzong /; 囊谦县; Nangchen County
G76,chu bzang dgon/,,,
G229,Jayul Gonpa; bya yul dgon pa/,,,lhun rtse rdzong /; Lhuntse county; 隆子县; bya yul/
G3479,gnyal 'phags sde dgon/,,,gnyal/; lhun rtse rdzong /; Lhuntse county; 隆子县
G1IC0009,phun tshogs gling; Pungsug Juu; Pungsuγ juu; Jalafun be wasihun obure szu; 崇壽寺,,,mkhar sngon grong khyer; Kökeqota; Kökeqota; 呼和浩特市
G3JT12413,ra bong dgon/,,,mdzod dge rdzong /; 若尔盖县
G2584,栽空改寺; mdzes khang dge dgon/,,,yul shul rdzong /; 玉树县
G4107,seng+ge dgon/,,,rta'u rdzong /; 道孚县; Tawu county
G4103,然吓寺; rwa shel dgon/,30.5,101.43333,rta'u rdzong /; 道孚县; Tawu county
G1916,smar khams dgon/,,,贵南县; mang ra rdzong /
G1KR2508,夏日仓寺; shar tshang dgon/,35.381,100.50214,同德县; gad pa sum mdo rdzong /
G1KR2859,瓦玉扎西寺; bar gzhi bkra shis dgon pa/,31.9464,96.05126,nang chen rdzong /; 囊谦县; Nangchen County
G1KR1172,bkra shis gling /; 扎西林寺,31.53333,95.26667,steng chen rdzong /; Tengchen County; 丁青县
G1KR1571,dar rgyas gling /; 塔杰林寺,28.98333,87.65,lha rtse rdzong /; 拉孜县; Lhatse county
G3843,宗达寺; rtse mda' dgon/,31.51667,100.7,brag 'go rdzong /; 炉霍县; Drakgo county
G448,gcan tsha mgur dgon/,,,gcan tsha rdzong /; 尖扎县
G1KR1970,chu mig dgon pa/; 水萍寺,33.6829,104.4407,舟曲县; 'brug chu rdzong /
G2197,og dkar phug dgon/,,,rtsa mda' rdzong /; 札达县; Tsada County; rtsa rang shang (rtsa mda' rdzong)
G1KR2668,nyin yus dgon pa/; 宁友寺,33.4,101.5,久治县; gcig sgril rdzong /
G4594,rin chen brag dgon/,,,lhun grub rdzong /; 林周县; Lhundrub county
G1972,byang chen dgon/,37,100.5,
G1DOMM0038,Dechingalaviin khural; bde chen bskal pa/,47.92,106.92,Ulaanbaatar; 乌兰巴托; u lan dpa' thul/; Улаанбаатар
G4158,rme yul dgon/,,,rme yul/
G1529,khams phu dgon/,,,Balung County; 'ba' lung rdzong /; 维西县
G3262,ze phug,,,
G1KR1411,朵阿林; mdo sngags gling /,29.36958,91.40105,grwa nang rdzong /; Dranang county; 扎囊县
G1965,Urge Dratsang Sang-ngak Mingyal Ling; urge grwa tshang gsang /,,,
G3395,wa thang dgon/,,,Biru county; 'bri ru rdzong /; 比如县
G3526,snye mdo dgon/; Nyedo Monastery; 宁多寺,29.16123,91.27114,grwa nang rdzong /; Dranang county; 扎囊县; snye mdo/
G2728,要毕日寺; yib dre'u ri dgon/,,,nang chen rdzong /; 囊谦县; Nangchen County
G1KR1913,rig ldan dga' tshal dgon/; 柔旦尕擦寺,37.23333,102.8,dpa' ris rdzong /; 天祝县
G1KR2311,扎西庄寺; bkra shis sde ba dgon/,36.1,102.45,化隆回族自治县; ba yan rdzong /
G4275,甘达寺; kar mda' dgon/,32.07621,96.49062,nang chen rdzong /; 囊谦县; Nangchen County
G1966,'brong tha dgon/,,,
G1KR2043,bla brang sngags pa grwa tshang /; 崖玉新寺,35.16738,102.45303,bsang chu rdzong /; 夏河县
G1833,gdong sna'i thugs rje chen po/,,,khri ka rdzong /; 贵德县
G3263,mog pa lha rtse/,,,Tsari; 匝日山; tsA ri/
G3396,glang del dgon/,,,Biru county; 'bri ru rdzong /; 比如县
G1KR1705,卓曲寺; sgrub chu dgon/,32.15,92.01667,聂荣县; Nyanrong County; snyan rong rdzong /
G1587,则热寺; rtswa ra dgon/,30.96667,100.31667,nyag rong rdzong /; 新龙县; Nyakrong county
G1KR1542,温达寺; Wenda; dben bdag dgon/,28.8,90,rgyal rtse rdzong /; 江孜县; Gyangtse county
G4289,rgya mtsho gling dgon/,,,
G2062,chos khung mo dgon/,,,gzi sbug shang (mal gro gung dkar rdzong)
G3990,phu'u dgon/; 普吾寺,32.63334,99.73333,gser thar rdzong /; 色达县; Serta county
G1KR1134,日巴寺,31.15,96.46667,ri bo che rdzong /; Riwoche county; 类乌齐县
G1BR018,Atsaisky datsan,51.13972,106.56694,Buryatia
G4585,gzim khun dgon/; 森库寺,29.96804,91.16569,lhun grub rdzong /; 林周县; Lhundrub county
G4321,bkra shis chos gling /; 扎西曲林寺,29.86667,93.25,kong po rgya mda' rdzong /; 工布江达县; Kongpo Gyamda County
G2579,相古寺; zhang 'gu dgon/,32.71394,97.41267,yul shul rdzong /; 玉树县
G00AG01802,mkhar rgya bo bya khyung dgon pa/,,,kong po/; rkyen/
G2266,伦珠曲丁寺; lhun grub chos sdings dgon/; Rutok Tashi Choling,33.41,79.64,ru thog rdzong /; 日土县; Rutok County; ru thog chus (ru thog rdzong)
G1KR1666,阿扎寺,30.65,93.28333,嘉黎县; Lhari county; lha ri rdzong /
G214,边钦寺; ban chen dgon/; Banchen Gon,32.84455,97.14682,yul shul rdzong /; 玉树县
G1894,切扎寺; chos tsha dgon/,36.43643,100.28537,共和县; chab cha rdzong /
G3757,bar khyim dgon/; 巴金寺,31.11667,98.9,dpal yul rdzong /; Palyul county; 白玉县
G3393,rab brtan dgon/,,,Biru county; 'bri ru rdzong /; 比如县
G3260,sa 'dul dgon pa/,,,
G1PD96125,安达其哈卡昂寺; mkhar nang dgon pa/,36.01813,101.98922,化隆回族自治县; ba yan rdzong /
G1KR2476,索乃亥寺; so nag dgon/,35.00094,101.471,rtse khog rdzong /; 泽库县
G1KR142,gor dbu dgon/; 果尔莫寺,31.77766,101.29823,'dzam thang rdzong /; 壤塘县
G2859,'og gzhi 'gram dgon/,,,Lhorong county; 洛隆县; lho rong rdzong /
G1KR1981,kwa hwa dgon/; 噶哈寺,33.60095,104.2993,舟曲县; 'brug chu rdzong /
G173,rgya yag dgon/; 红沟下寺,37.48333,102.56667,dpa' ris rdzong /; 天祝县
G2726,gtsang mda' dgon/,,,
G4288,brag mkhar dgon/,,,
G1KR2510,夸力亥寺; mkhon lhas mtshams khang /,35.18088,100.43329,同德县; gad pa sum mdo rdzong /
G1KR2669,斗合隆寺; stag lung dgon/,33.4,101.5,gser thar rdzong /; 色达县; Serta county
G1KR2451,古鲁寺; rma mgur dgon/,35.95,101.96,gcan tsha rdzong /; 尖扎县
G1PD96105,金刚寺; rtag brtan rdo rje gling /,36.86369,102.1893,Gonlung; dgon lung rdzong /; 互助县
G1DOMM0039,Ekh daginiin aimgiin khural,47.92,106.92,Ulaanbaatar; 乌兰巴托; u lan dpa' thul/; Улаанбаатар
G2534,a mchog bor chung ri khrod/; 阿木去乎修证院,34.84807,102.70921,bsang chu rdzong /; 夏河县
G1KR1665,拉日寺; lha ri dgon/,30.65,93.28333,嘉黎县; Lhari county; lha ri rdzong /
G3394,rgod lung dgon/,,,Biru county; 'bri ru rdzong /; 比如县
G1831,yul lha'i lha khang /,,,khri ka rdzong /; 贵德县
G4818,rkyang 'dur dgon/,,,
G2620,'ge'u dgon pa/; 改吾寺,31.89549,96.128,nang chen rdzong /; 囊谦县; Nangchen County
G1KR133,snar 'dus dgon/; 斯拉尔底寺,32.25125,101.89459,马尔康县; Barkham County; 'bar khams rdzong /
G1KR2387,白佛寺; la mo sgar/,36.87396,100.73,海晏县; mda' bzhi rdzong /
G1964,rgya mkhar sgar/; Gyakar Gar,,,gtsos/; gtsos grong khyer/; Zoi City; 合作市
G4843,dga' ru dgon/; 噶如寺,33.77344,104.18816,舟曲县; 'brug chu rdzong /
G3399,pad dkar dgon/,,,Biru county; 'bri ru rdzong /; 比如县
G1KR751,ang bzang dgon/; 龙绒寺,28.7,99.2,sde rong rdzong /; 得荣县; Derong county
G1KR2040,sgyis tshang nags ri dgon/; 吉仓纳日寺,34.65125,102.85521,碌曲县; klu chu rdzong /
G1KR2039,a la de'u mgo'i dgon/; 阿拉丁果寺,34.62115,102.9155,碌曲县; klu chu rdzong /
G1KR1998,巴西电尕寺（上，下寺）; dpal shis steng kha dgon/,34.10932,103.21964,迭部县; the bo rdzong /
G4570,theg chen bshad sgrub gling /; 梯青协珠林,29.73191,91.6661,mal gro gung dkar rdzong /; Medro Gongkar County; 墨竹工卡县
G1612,rgyal zhing dgon/; 甲衣寺,31.18333,100.3,nyag rong rdzong /; 新龙县; Nyakrong county
G3784,brag mkhar dgon/; 丈卡寺,30.31667,101.56667,康定县; Dardo county; dar mdo rdzong /
G1KR2477,so nag gter gsar/; 索乃亥德斯尔寺,35.00094,101.471,rtse khog rdzong /; 泽库县
G1KR1590,kha lung rdzong dgon/; 卡隆宗寺,29.15,86.61667,ngam ring rdzong /; Ngamring county; 昂仁县
G1969,rgyal lung ri khrod/,,,
G1860,瓦家寺; ba kyA grwa tshang /,36.01335,101.40151,khri ka rdzong /; 贵德县
G2068,chu mig dgon/,,,mal gro gung dkar rdzong /; Medro Gongkar County; 墨竹工卡县; thang skya shang (mal gro gung dkar rdzong)
G2582,多贡寺; rdo dgon/,32.38239,97.03628,yul shul rdzong /; 玉树县
G2276,brag gyam dgon/; 扎江寺,32.21,83.99,sger rtse rdzong /; 改则县; Gertse County; sgar rdzong /; 噶尔县; Gar County; khang thog chus (sger rtse rdzong)
G1KR804,布顶寺,28.86667,99.1,Dechen County; 德钦县; bde chen rdzong /
G4634,chos 'khor rgyal/; 曲科杰寺,29.45252,92.72956,加查县; Gyatsha county; rgya tsha rdzong /; chos 'khor rgyal khul/
G1KR1661,仲俄寺,31.73333,92.75,Nagchu County; nag chu rdzong /; 那曲县
G1KR1672,革古寺,30.8,92.7,嘉黎县; Lhari county; lha ri rdzong /
G3JT12521,hal kha har thal pe'i ze/; Гандандамчаалин; Хардалын ганжуур; *dga' ldan dam chos gling /,46.23,110.83,khal kha/
G1KR2916,江河俄康; cang hwo sngags khang /,37.33,99.31,天峻县; them chen rdzong /
G2902,bka' cog dgon/,,,波密县; spo bo rdzong /; Pome County; shul mo chus (spo bo rdzong)
G3255,rgyal byed dgon/; 杰吉寺,29.39859,90.18752,snye mo rdzong /; 尼木县; Nyemo county; dar grong grong rdal (snye mo rdzong)
G2KR39,bkra shis chos 'khor gling /; Dashchoinkhorlin khiid; Dashchoinkhorlin khiid,48,106.93,Ulaanbaatar; 乌兰巴托; u lan dpa' thul/; Улаанбаатар
G1KR242,ma gsar bon dgon/; 玛色寺,32.80999,102.51544,rka khog rdzong /; 红原县
G1676,扎西寺; rtsa shul dgon/; tashi monastery,31.88333,99.33334,sde dge rdzong /; 德格县; Derge County
G4028,shing 'khar dgon/,,,sde rong rdzong /; 得荣县; Derong county
G2GS1264,木古隆寺; mu gu lung dgon/; Mugulung Gon,29.01667,87.65,mus/; lha rtse rdzong /; 拉孜县; Lhatse county; mu gu lung /
G1KR13,gser len dgon/; 较场寺,32.38667,103.47227,zung chu rdzong /; 松潘县
G00EGS1017290,sbag sa chos sgar/,,,india; rgya gar/; 印度
G2LS581,ri ba bkra shis chos gling /; 日娃扎西曲林寺,31.6,79.15,rtsa mda' rdzong /; 札达县; Tsada County
G1635,俄普寺; 'od phung dgon/,30.78333,100.03333,nyag rong rdzong /; 新龙县; Nyakrong county
G1KR2915,郭那帐房寺; go na dgon pa/,37.33,99.31,天峻县; them chen rdzong /
G1KR1001,莫荣寺,31.98333,97.11667,昌都县; chab mdo rdzong /; Chamdo county
G1DOMM0035,Tsagaan süm; kun dga' bde skyid gling /,47.92,106.93,Ulaanbaatar; 乌兰巴托; u lan dpa' thul/; Улаанбаатар
G1KR1985,甲嘎尔塘寺; rgya mkhar thang dgon/,33.52818,104.50942,舟曲县; 'brug chu rdzong /
G1BR033,Atagan-Dyrestuyskiy datsan,50.658056,106.069444,Buryatia
G1KR1628,dgon pa byang /; 贡巴强寺,28.23333,87.75,gting skyes rdzong /; Tingkye county; 定结县
G1KR2087,海马沟寺; he ma lung ba'i dgon pa/,36.44274,101.54423,湟中县; sku 'bum rdzong /
G1KR1668,措果寺,30.73333,93.35,嘉黎县; Lhari county; lha ri rdzong /
G1KR1464,Yedri; ye sgri dgon pa/; 叶止寺,28.96648,92.12606,chu gsum rdzong /; Chusum county; 曲松县
G1KR27,香扎寺; spyang tsha dgon/,33.60469,103.73473,南坪县; gzi tsha sde dgu rdzong /
G3397,ser bkra dgon/,,,Biru county; 'bri ru rdzong /; 比如县
G3010,达坚寺; ri bo mdangs can dgon/,28.96667,89.18333,pa snam rdzong /; 白朗县; Panam County
G1KR111,若布洛寺; gzigs spro dgon/,31.98498,102.0396,马尔康县; Barkham County; 'bar khams rdzong /
G3264,khams 'jo dgon/,,,
G3876,阿依寺; a yig dgon/,30.28333,100.6,li thang rdzong /; 理塘县; Litang county
G2900,spang dkar ri khrod/,,,波密县; spo bo rdzong /; Pome County; shul mo chus (spo bo rdzong); g.yu ri/
G1KR1734,帮吉寺,31.56667,94.65,Sok county; sog rdzong /; 索县
G1KR1002,岭达寺,31.98333,97.11667,昌都县; chab mdo rdzong /; Chamdo county
G1968,lcang lung sgar/,,,
G1KR2271,tan khang dgon pa/; 电岗寺,36.23088,101.7836,化隆回族自治县; ba yan rdzong /
G4590,sna mkhar dgon/; 那喀尔寺,29.99688,91.27463,lhun grub rdzong /; 林周县; Lhundrub county
G3398,bya sna dgon/,,,Biru county; 'bri ru rdzong /; 比如县
G1KR1012,珠古寺; tho gru gu dgon/,31.28333,97.51667,tho gru gu/; 昌都县; chab mdo rdzong /; Chamdo county
G2549,sog tsha dgon pa/,,,rkang tsha rdzong /; 刚察县
G1926,嘉扎寺; rgya bza' dgon/,35.11986,100.13,兴海县; rtsi gor thang rdzong /
G4150,bdud ri glang del dgon/,,,
G4283,jing gong dgon/,,,
G1KR2103,雪下洞寺; dkar po ri khrod/,36.65407,101.4,湟中县; sku 'bum rdzong /
G4813,spom brag dgon/,,,
G1KR1765,色西寺; ser zhig dgon/,30.665132,86.55082,Nyima county; nyi ma rdzong /; 尼玛县
G3084,brag sna chos rje grwa gtsang /,,,
G1PD96027,梧石沟寺; u shi brag dgon chen/,35.9246,102.76515,民和县; bka' ma log rdzong /
G1KR227,sum mdo dgon/; 森都寺,34.23996,102.89345,mdzod dge rdzong /; 若尔盖县
G1KR1011,khams pa sgar/; 康巴寺,31.28333,97.51667,昌都县; chab mdo rdzong /; Chamdo county
G1KR626,dpon ri dgon/; 奔日寺,33.06667,98.33334,ser shul rdzong /; Seshul county; 石渠县
G2417,pad+ma gling dgon/,,,chu shur rdzong /; 曲水县; Chushur County
G4282,rob gte g.yo dgon/,,,
G1KR1987,chu gdong dgon pa/; 坚地寺扎西曲登寺,33.45127,104.41601,舟曲县; 'brug chu rdzong /
G2LS519,byi'u dgon/; 齐乌寺,30.76,81.36,spu hreng rdzong /; Purang county; 普兰县
G1KR2437,察加寺; tshwa rgyal dgon/,35.42817,102.18261,同仁县; Rebkong County; reb gong rdzong /
G4812,karma lha steng dgon pa/,,,nang chen rdzong /; 囊谦县; Nangchen County
G3834,bAH gnas dgon/; 玲龙寺,31.21667,100.83334,brag 'go rdzong /; 炉霍县; Drakgo county
G1KR2042,bkra shis 'khyil ba'i ri khrod lnga /; 拉卜楞寺五座静修院,35.19761,102.44447,拉卜楞寺; Labrang Tashikyil; bla brang dgon pa/; bsang chu rdzong /; 夏河县
G1KR2479,拉卡寺; lA kha dgon/,34.64,101.6,河南蒙古族自治县; rma lho rdzong /
G17,噶陀寺; Katok Dorjeden; kaHthog dgon/,31.38333,98.95,dpal yul rdzong /; Palyul county; 白玉县
G3085,lha lung skyid spro dgon/,,,mal gro gung dkar rdzong /; Medro Gongkar County; 墨竹工卡县; rgya ma/
G4041,ra tso dgon/; 若宗寺,30.86667,101.83334,rong brag rdzong /; Rongdrak county; 丹巴县
G1KR1153,rtse drug dgon/; 孜珠寺,31.241765,95.858969,steng chen rdzong /; Tengchen County; 丁青县
G3JT12510,sems rtogs kha/,27.438432,89.669724,thim phu/; Thimphu
G2DOMM0011,dga' ldan dge rgyas gling /; Khalkhiin Zaya gegeenii Güshig datsan; Tsanid datsan; mtshan nyid grwa tshang /,47.08,106.93,Ulaanbaatar; 乌兰巴托; u lan dpa' thul/; Улаанбаатар; Baruun khuree; Баруун хүрээ; Рибогэзайгаданшаддүвлин; *ri bo dge rgyas dga' ldan bshad sgrub gling /
G1KR1700,snang gsal dgon/; 朗色寺,32.011338,92.386158,聂荣县; Nyanrong County; snyan rong rdzong /
G1PD95975,宝贝寺; dga' ldan rin chen gling /,37.05548,101.4982,大通县; gser khog rdzong /
G4281,byang sgang dgon/,,,
G3745,ba gnas pe ri dgon/,,,
G1KR234,结巴寺; rgyud pa dgon/,33.68274,103.22073,mdzod dge rdzong /; 若尔盖县
G221,shel dkar chos sde/; Shelkhar Chode; 协格尔曲德寺,28.13333,87.11667,ding ri rdzong /; 定日县; Tingri County
G1KR1562,o rgyan dgon/; 邬坚寺,28.96667,87.95,sa skya rdzong /; Sakya county; 萨迦县
G4280,mar srib kung phu dgon/,,,
G2832,ras chung phug; 热琼洞,29.15336,91.76162,sne gdong rdzong /; Nedong County; 乃东县
G1KR217,纳摩格尔登; stag tshang lha mo kir+ti dgon/,34.10209,102.7303,mdzod dge rdzong /; 若尔盖县
G3746,'bre tshe dgon/,,,
G2415,bud sde sgom chen dgon/; Bude Gomchen Gon,,,chu shur rdzong /; 曲水县; Chushur County
G168,达隆寺; zung zhan stag lung dgon/,37.11667,103.48333,dpa' ris rdzong /; 天祝县
G2DOMM0018,Agrim datsan; sngags rim grwa tshang /,47.92,106.93,Ulaanbaatar; 乌兰巴托; u lan dpa' thul/; Улаанбаатар
G2720,seb mda' dgon pa/; 赛达寺,33.00108,97.29864,称多县; khri 'du rdzong /
G3742,德卡寺; bde cha dgon/,30.86667,100.88333,rta'u rdzong /; 道孚县; Tawu county
G1935,瓜什则参康; mgar rtse mtshams khang /,35.31508,100.81255,同德县; gad pa sum mdo rdzong /
G4CZ321339,gzi mig dgon/,,,sikkim; 'bras ljongs/
G1KR744,朗岭寺; rnam gling dgon/,29.5,99.95,'dab pa rdzong /; 稻城县; Dabpa county
G3878,a mdo sgang thog dgon/,,,li thang rdzong /; 理塘县; Litang county
G2GS1302,'o chung dgon/; 俄琼寺,30.36667,96.56667,八宿县; Pashod County; dpa' shod rdzong /
G1KR243,mag gsar dgon/; 持明熟解岭,32.80999,102.53044,rka khog rdzong /; 红原县
G1KR1681,国龙尼寺,31.53333,93.11667,Biru county; 'bri ru rdzong /; 比如县
G4287,lcags rwa dgon/,,,
G4154,rdza stod lcang ma'i dgon/,,,rdza stod/
G2060,g.yang sgang dgon/,,,nyi ma lcang ra shang (mal gro gung dkar rdzong)
G1438,kong po de mo dgon/; 第穆寺,29.5,94.61667,林芝县; nying khri rdzong /; Nyingtri county
G4493,snang zhig dgon/; 郎依寺; Nangshik Monastery,32.90466,101.72959,阿坝县; rnga ba rdzong /
G1KR1020,地本寺; rdis bon dgon/,31.803337,98.126807,Joda County; 'jo mda' rdzong /; 江达县
G2725,布日寺; spu ri dgon/,32.05579,96.49707,nang chen rdzong /; 囊谦县; Nangchen County
G1961,a mchog sngon mo thang /; Amchok Ngonmotang,,,Gannan Prefecture; kan lho rang skyong khul/; 甘南州
G3922,g.yung drung bdud 'dul gling /,,,li thang rdzong /; 理塘县; Litang county
G1KR2685,拉泽恰贡帐房寺; lha rtse chab gong chos sgar/,35.10987,99.0355,玛多县; rma stod rdzong /
G3391,rwa khyim dgon/,,,Biru county; 'bri ru rdzong /; 比如县; rlan chu shang ('bri ru rdzong); 'gom tsho shog
G1KR1893,巴卡寺; rba kha dgon/,29.91667,95.46667,波密县; spo bo rdzong /; Pome County; spra rmog chus (spo bo rdzong)
G1KR1125,仁青顶寺,30.61667,98.9,贡觉县; Gongjo County; go 'jo rdzong /
G1KG21060,pad+ma phan bde chos gling /; pema phendey chholing,,,bkra shis sgang /
G1KR1997,bze kha dgon/; 日盖寺,34.05767,103.2383,迭部县; the bo rdzong /
G4699,曼龙寺; sman lung dgon/,35.19692,102.91018,Gannan Prefecture; kan lho rang skyong khul/; 甘南州
G2GS1049,ngom sgang dgon/,,,
G4286,tsha stod gnas ra dgon/,,,
G1656,maN+Dal dgon/; 门查寺,31.96667,98.66666,sde dge rdzong /; 德格县; Derge County
G3619,dga' ldan bdud 'joms gling /,,,lho brag rdzong /; 洛扎县; Lhodrag county
G10MS14315,mnga' ris chos sde dgon/,,,mnga' ris/; Ngari
G1KR797,拖位主寺,28.11667,98.93333,Dechen County; 德钦县; bde chen rdzong /
G1KR61,sa stod dgon/; 沙石多寺,32.10243,102.80775,khro chu rdzong /; 黑水县
G4153,brag lha rdzong dgon/,,,
G47,bde chen chos 'khor/; 德庆曲果寺,29.21521,90.82459,gong dkar rdzong /; Gongkar county; 贡嘎县
G62,yang ri sgar/; 羊日岗寺,30.00055,91.98757,mal gro gung dkar rdzong /; Medro Gongkar County; 墨竹工卡县; sangs ri sgang shang (mal gro gung dkar rdzong)
G1KR1667,达孜寺,30.65,93.28333,嘉黎县; Lhari county; lha ri rdzong /
G1659,brtse chen chos gling /,,,sde dge rdzong /; 德格县; Derge County
G1KR2723,ha zhug zi/; 哈休寺,33.35522,96.36483,yul shul rdzong /; 玉树县
G1526,'jol dga' ldan bde chen gling /,,,Dechen County; 德钦县; bde chen rdzong /
G1KR86,干木足寺; kam kyo dgon/,31.88099,102.48495,马尔康县; Barkham County; 'bar khams rdzong /
G4816,brgya mkhas gsang sngags gling /,,,
G3921,bon mgo dgon/,,,li thang rdzong /; 理塘县; Litang county
G1KR1124,郎措寺,30.61667,98.9,贡觉县; Gongjo County; go 'jo rdzong /
G3392,lha smon dgon/,,,Biru county; 'bri ru rdzong /; 比如县
G3997,bla rung sgar/; Larung Gar; 色达五明佛学院,32.153269,100.466955,gser thar rdzong /; 色达县; Serta county
G2543,秀脑日寺; phyug nor dgon/,37.28318,99.6,rkang tsha rdzong /; 刚察县
G802,zur mkhar theg chen gling /,,,
G4285,rgyang phu dgon/,,,
G1PD96050,chi kya zi/; 祁家寺,,,民和县; bka' ma log rdzong /
G1KR2373,岗察寺; ya rdzi'i rkang tsha dgon pa/,35.65587,102.30747,循化县; ya rdzi rdzong /
G1KR1123,贡嘎寺,30.61667,98.9,贡觉县; Gongjo County; go 'jo rdzong /
G1KR1527,贵恩拉康; gos sngon lha khang /,29.51667,89.58334,rnam gling rdzong /; 南木林县; Namling County; 'o yug
G1KR2791,岗察寺; rkang tsha zi/,33.37044,97.00859,称多县; khri 'du rdzong /
G1KR2211,庄子沟寺; krung this gu'u zi/,36.42867,102.71452,民和县; bka' ma log rdzong /
G1594,sa stod zhi ba dgon/; 俄巴寺,31.46667,100.11667,nyag rong rdzong /; 新龙县; Nyakrong county
G1KR2352,夕昌修行院; bse chang sgom grwa/,35.71,102.57447,循化县; ya rdzi rdzong /
G1KR1013,哈加寺,31.28333,97.51667,昌都县; chab mdo rdzong /; Chamdo county
G1KR278,甲斯宫寺; bkra shis gling dgon/,31.1,101.86667,rong brag rdzong /; Rongdrak county; 丹巴县
G1PD96034,hu kya zi bkra shis chos 'khor gling /; 胡李家寺,35.86862,102.82443,民和县; bka' ma log rdzong /
G4577,dpal ldan rtse dgon pa/; 班旦孜寺,29.90549,91.08465,lhun grub rdzong /; 林周县; Lhundrub county
G3617,kam po gnas nang dgon/,,,li thang rdzong /; 理塘县; Litang county; kaM po gangs rwa/
G1KR1764,穷措寺; phyug tsho dgon/,31.04036,86.622393,Nyima county; nyi ma rdzong /; 尼玛县
G803,skyid mo grong dpal ri grwa sa/,,,skyid rong /
G1KR1220,嘎吉寺,30.83333,97.86667,brag g.yab rdzong /; 察雅县; Drakyap County
G4284,tsha smad thugs chags dgon/,,,
G1KR1122,拉多寺,30.61667,98.9,贡觉县; Gongjo County; go 'jo rdzong /
G1KR7,byams pa dgon/; 弥勒寺,31.61013,103.21152,li xian; bkra shis gling rdzong /; 理县
G3390,'gom dgon gsar dgon/,,,Biru county; 'bri ru rdzong /; 比如县; rlan chu shang ('bri ru rdzong); 'gom tsho shog
G4814,spel sgo dgon pa/,,,
G3993,khang dmar na mdo dgon/; 康玛朗多寺,32.63334,99.73333,gser thar rdzong /; 色达县; Serta county
G1PD96008,宏化寺; mdzo mo mkhar/,36.04274,102.92569,民和县; bka' ma log rdzong /
G3087,reb gong gnyan thog dgon/,,,同仁县; Rebkong County; reb gong rdzong /; gnyan thog
G412,bsam sdings dgon pa/; Samding Monastery; 桑丁寺,28.97853,90.48091,sna dkar rtse rdzong /; Nangkartse County; 浪卡子县; yar 'brog
G2LS534,gdong po rab brtan dgon/,,,rtsa mda' rdzong /; 札达县; Tsada County
G501,年毛寺; snyan mo dgon/,33.73,99.43,'dzugs skrun zhang /
G2727,求嘎寺; chos sgar dgon/,32.06421,96.05794,nang chen rdzong /; 囊谦县; Nangchen County
G2420,pho phe dgon/,,,chu shur rdzong /; 曲水县; Chushur County
G3222,土哇寺; mthu ba dgon/,36.05,102.5222,化隆回族自治县; ba yan rdzong /
G1KR179,连则寺; gnyan rtse dgon/,33.02822,101.61635,阿坝县; rnga ba rdzong /
G2550,龙喜寺; klung shod dgon/,32.66369,96.60918,yul shul rdzong /; 玉树县
G3303,chos sde dgon/; Chode; 曲德寺,29.41592,90.17052,snye mo rdzong /; 尼木县; Nyemo county; thar rung shang (snye mo rdzong)
G1KR1067,佐龙寺,31.45,98.15,Joda County; 'jo mda' rdzong /; 江达县
G1KR532,seng 'byor dgon/; 申九寺,32,99.48333,sde dge rdzong /; 德格县; Derge County
G2LS558,热尼寺; rad ni gtsug lag khang /,31.68,78.9,rtsa mda' rdzong /; 札达县; Tsada County
G4867,乔典夏尔寺; mchod rten shar dgon/,34.91011,102.91285,gtsos grong khyer/; Zoi City; 合作市; sna bug zhang (bsang chu)
G1792,mdo thog dgon/,,,'bos pa zhang ( pad+ma rdzong)
G1906,查乃亥寺; tsha nag dgon/,35.67244,101.2662,贵南县; mang ra rdzong /
G1KR1257,色布寺,30.01667,97.15,八宿县; Pashod County; dpa' shod rdzong /
