the_geom,cartodb_id,chgis_id,altname_wylie,name_ch,name_py,town_ch,town_py,town_syl,gbcnty,cnty_ch,cnty_py,gbdist,dist_py,prov_py,orig_file,lat,long,gbtown_from_lex,gis_id_from_lex,name_wylie_from_lex,gbtown_from_tbrc,gis_id_from_tbrc,wylie_name_from_karl,normalized_wylie_name_tbrc,county,tbrc_county_g_,tbrc_county_notes,tbrc_site_g_,tbrc_site_notes,alternative_wylie_name,tbrc_phonetic,phonetic,primary_chinese_cha,alternative_chinese_cha,pinyin_name,founding,sect,gonpa_per_1000_sq_km,gonpa_per_ecumen,conv_date_1,conv_sect_1,conv_date_2,conv_sect_2,notes,problems,field_45,field_46,field_47,field_48,field_49,field_50,field_51,field_52,field_53,field_54
0101000020E61000009FB0C403CABA5940672C9ACE4EAE4140,2924,2059,,,,曲奥乡,Quao xiang,Qu Ao Xiang,623027,夏河县,Xiahe Xian,6230,Gannan Zizhizhou,Gansu,Gannan_Lex_20120621,35.36178,102.91858,623027206,623025711,,,,,,,,,,,,,,,,,,,,,,,,,,,,,,,,,,,,
0101000020E61000000B98C0ADBBBB58406566666666264040,122,549,,,qu ou si,浪多乡,Langduo xiang,Lang Duo Xiang,513330,德格县,Dege Xian,5133,Garze Zizhizhou,Sichuan,Kangon_Lex_20120621,32.3,98.93333,513330220,152,chu ngogs dgon,513330220,152,chu ngogs dgon/,,Derge,G1539,sde dge rdzong,,,,,na,曲欧寺,,qu ou si,1649,bka' brgyud/,5.488474204,5.488,,,,,were 2 entries for this gonpa in original GIS core-periphery file by mistake. Deleted GIS ID 153 double entry from this file.,,,,,,,,,,,
0101000020E6100000DC989EB0C44358404AEF1B5F7B824040,2827,2691,,嘉那嘛呢康,jiana mani kang,结古镇,Jiegu zhen,Jie Gu Zhen,632721,玉树县,Yushu Xian,6327,Yushu Zizhizhou,Qinghai,Yu_gonpa_Lex_20120622,33.01939,97.05888,632721100,193,rgya nag ma ni khang,632721100,193,rgya nag ma ni khang,rgya nag ma ni khang,na,G2326,yul shul rdzong, ,,,,,嘉那嘛呢石经城,,jiana mani kang,1715,Sakya,7.657554177,7.658,,,,,,,,,,,,,,,,
0101000020E6100000289B7285770759403A0664AF77773F40,2480,450,,,ya wo si,沙堆乡,Shadui xiang,Sha Dui Xiang,513329,新龙县,Xinlong Xian,5133,Garze Zizhizhou,Sichuan,Kangon_Lex_20120621,31.46667,100.11667,513329200,214,yang dben dgon,513329200,214,yang dben dgon/,,Xinlong,G1246,nyag rong rdzong,DUPLICATE,,,,na,牙窝寺,,ya wo si,na,rnying ma/,5.306376938,5.306,,,,,,,,,,,,,,,,
0101000020E61000004963B48EAA0A5940C6F99B5088C83E40,115,475,,,leng bu si,博美乡,Bomei xiang,Bo Mei Xiang,513329,新龙县,Xinlong Xian,5133,Garze Zizhizhou,Sichuan,Kangon_Lex_20120621,30.78333,100.16666,513329207,185,klu 'bum dgon,513329207,185,klu 'bum dgon/,,Xinlong,G1246,nyag rong rdzong,DUPLICATE,,,,na,楞波寺,(leng bo si ?),leng bu si,na,bka' brgyud/,65.6845266,65.685,,,,,,,,,,,,,,,,
0101000020E6100000CDCCCCCCCC0C59406666666666663F40,2492,463,,,ri ba jue mu si,大盖乡,Dagai xiang,Da Gai Xiang,513329,新龙县,Xinlong Xian,5133,Garze Zizhizhou,Sichuan,Kangon_Lex_20120621,31.4,100.2,513329202,211,bde chen jo mo dgon,513329202,211,bde chen jo mo dgon/,,Xinlong,G1246,nyag rong rdzong,DUPLICATE,,,,na,日巴觉母寺,,ri ba jue mu si,1725,rnying ma/,8.500716489,8.501,,,,,Early 18th c. (18????).,,,,,,,,,,,
0101000020E610000033333333331359402C6002B7EE2E3F40,278,456,,,jia nong si,乐安乡,Lean xiang,Le An Xiang,513329,新龙县,Xinlong Xian,5133,Garze Zizhizhou,Sichuan,Kangon_Lex_20120621,31.18333,100.3,513329201,180,rgyal zhing dgon,513329201,180,rgyal zhing dgon/,,Xinlong,G1246,nyag rong rdzong,DUPLICATE,,,,na,甲农寺,,jia nong si,1575,bon po/,10.06684384,10.067,,,,,Late 16th c. (16????).,,,,,,,,,,,
0101000020E6100000F5673F5244245940F92CCF83BB7B3E40,2503,480,,,lang cun si,孜拖西乡,Zituoxi xiang,Zi Tuo Xi Xiang,513329,新龙县,Xinlong Xian,5133,Garze Zizhizhou,Sichuan,Kangon_Lex_20120621,30.48333,100.56667,513329209,202,ngas tshan dagon,513329209,202,ngas tshan dagon,nags tshan dgon,Xinlong,G1246,nyag rong rdzong,DUPLICATE,,,,na,朗村寺,,lang cun si,na,rnying ma/,7.135619586,7.136,,,,,,,,,,,,,,,,
0101000020E61000003F6F2A52612058406891ED7C3F094040,492,2807,,采久寺,caijiu si,白扎乡,Baizha xiang,Bai Zha Xiang,632725,囊谦县,Nangqian Xian,6327,Yushu Zizhizhou,Qinghai,Yu_gonpa_Lex_20120622,32.07225,96.50594,632725201,125,tshes bcu dgon 'brug mdo sngaT bshad sgrub chos 'khor gling,632725201,125,tshes bcu dgon 'brug mdo sngaT bshad sgrub chos 'khor gling,,na,G1467,nang chen rdzong,DUPLICATE,,tshes bcu dgon (nang chen rdzong ),,,采久寺,,caijiu si,na,Drugpa,6.205928213,6.206,,,,,c. 1830s became administrative center of 'Yushu 25 Tribes',,,,,,,,,,,
0101000020E6100000CDCCCCCCCCCC5840C6F99B5088483C40,1175,802,,东竹林觉母衮,Dongzhulin juemugun,奔子栏乡,Benzilan xiang,Ben Zi Lan Xiang,533422,德钦县,Deqin Xian,5334,Deqen Zizhizhou,Yunnan,Yunnan_Lex_20120622,28.28333,99.2,533422205,16,na,533422205,16,na,,Deqin,G1522,bde chen rdzong,DUPLICATE,,sbom rag dga' ldan don grub gling,,na,东竹林寺,香格里拉噶丹东竹林寺/冲冲错岗衮,Dongzhulin juemugun,na,Geluk,3.309504898,3.31,,,,,Extant or Rebuilt,,,,,,,,,,,
0101000020E6100000B81E85EB51185940D0F23CB83B2F4240,66,2489,,东格尔寺,dongge'er si,廿地乡,Niandi xiang,Nian Di Xiang,632521,共和县,Gonghe Xian,6325,Hainan Zizhizhou,Qinghai,Qinghai_Lex_20120621,36.36901,100.38,632521201,36,dung dkar bon dgon,632521201,441,dung dkar bon dgon,,na,G1698,chab cha rdzong,DUPLICATE,,dung dkar dgon gshen bstan dar rgyas gling,,Dungkar,东格尔寺,东科寺,dongge'er si,1350,b,5.094866413,5.095,,,,,,,,,,,,,,,,
0101000020E6100000F7C77BD5CA545940448B6CE7FBF54140,76,2534,,却毛寺,quemao si,河西乡,Hexi xiang,He Xi Xiang,632523,贵德县,Guide Xian,6325,Hainan Zizhizhou,Qinghai,Qinghai_Lex_20120621,35.92175,101.32488,632523201,306,khyung mo'i dgon g.yung drung phun tshogs gling ngam bon sgar bkra shis chos gling,632523201,644,khyung mo'i dgon g.yung drung phun tshogs gling ngam bon sgar bkra shis chos gling,,na,G1715,khri ka rdzong,DUPLICATE,,,,,却毛寺,,quemao si,1790,b/g,59.243461,59.243,,,,,,,,,,,,,,,,
0101000020E6100000B81E85EB51585940C893A46B26F74140,69,2536,,当车寺,dangche si,河西乡,Hexi xiang,He Xi Xiang,632523,贵德县,Guide Xian,6325,Hainan Zizhizhou,Qinghai,Qinghai_Lex_20120621,35.93086,101.38,632523201,265,stong che'i bon dgon,632523201,361,stong che'i bon dgon,,na,G1715,khri ka rdzong,DUPLICATE,,,,,当车寺,,dangche si,1766,b,59.243461,59.243,,,,,,,,,,,,,,,,
0101000020E610000000000000006059400E10CCD1E3FF4140,68,2519,,色尔加寺,se'erjia si,河阴镇,Heyin zhen,He Yin Zhen,632523,贵德县,Guide Xian,6325,Hainan Zizhizhou,Qinghai,Qinghai_Lex_20120621,35.99914,101.5,632523100,312,se kya'i bon dgon,632523100,362,se kya'i bon dgon,,na,G1715,khri ka rdzong,DUPLICATE,,,,,色尔加寺,,se'erjia si,1807,b,39.15877732,80.808,,,,,,,,,,,,,,,,
0101000020E6100000736891ED7C9D5940DF6C73637A0A4240,1905,2310,,桑加吾具寺,sangjia wuju si,初麻乡,Chuma xiang,Chu Ma Xiang,632127,化隆回族自治县,Hualong Hui Zizhixian,6321,Haidong Diqu,Qinghai,Qinghai_Lex_20120621,36.08186,102.46075,632127215,317,sang ca u cul zi,632127215,214,sang ca u cul zi,sang ca u cul zi,na,G1PD96109,ba yan rdzong,DUPLICATE,,,,,桑加吾具寺,,sangjia wuju si,1810,n,57.84526392,57.845,,,,,,,,,,,,,,,,
0101000020E61000002A52616C21A259406666666666064240,1913,2321,,土哇寺,tuwa si,金源藏族乡,Jinyuancangzu xiang,Jin Yuan Cang Zu Xiang,632127,化隆回族自治县,Hualong Hui Zizhixian,6321,Haidong Diqu,Qinghai,Qinghai_Lex_20120621,36.05,102.53329,632127216,141,mthu ba dgon bkra shis chos sde,632127216,210,mthu ba dgon bkra shis chos sde,,na,G1PD96109,ba yan rdzong,DUPLICATE,,,,,秃哇仓寺,土挖寺/徒哇寺,tuwacang si,1669,n,96.75858732,96.759,,,,,,,,,,,,,,,,
0101000020E61000009A99999999A959400000000000004240,1919,2335,,塔加寺,tajia si,塔加藏族乡,Tajiacangzu xiang,Ta Jia Cang Zu Xiang,632127,化隆回族自治县,Hualong Hui Zizhixian,6321,Haidong Diqu,Qinghai,Qinghai_Lex_20120621,36,102.65,632127217,195,tha kya dgon bkra shis bsam gtan gling,632127217,216,tha kya dgon bkra shis bsam gtan gling,,na,G1PD96109,ba yan rdzong,DUPLICATE,,,,,塔加寺,塔加寺,tajia si,1692,n,22.55617898,22.556,,,,,,,,,,,,,,,,
0101000020E61000009A99999999195640609335EA21223C40,2155,1651,,,Nye,,Changlong xiang,,542338,岗巴县,Gangba Xian,5423,Xigazi Diqu,Xizang,Tsanggonpa_Lex_20120622,28.13333,88.4,542338200,542338102,(Nye),542338200,542338102,(Nye),,Kangba,G2168,gam pa rdzong,DUPLICATE,,mchod rten nyi ma,,Nye,曲典尼玛寺,,na,1000,non-sect,2.893476657,2.893,x,x,x,x,"certainly phyi dar, possibly even Imperial era cave temple carvings, pictures in Kangba Xian Wenwuzhi, 1993",,,,,,,,,,,
0101000020E6100000AF777FBC57E35940CA6C904946024140,248,2009,,,Zhari Benjiao Si,尼傲乡,Niao xiang,Ni Ao Xiang,623024,迭部县,Diebu Xian,6230,Gannan Zizhizhou,Gansu,Gannan_Lex_20120621,34.01777,103.55223,623024204,623024127,rtsa ri'i bon dgon,623024204,623024127,rtsa ri'i bon dgon,,na,G2205,the bo rdzong,DUPLICATE,,,,Tsari,扎日苯教寺,,Zhari Benjiao Si,790,Bon,10.12837718,9.088,,,,,,,,,,,,,,,,
0101000020E61000003ECBF3E0EE5E5940D39FFD4811913E40,359,368,,,hui yuan si,协德乡,Xiede xiang,Xie De Xiang,513326,道孚县,Daofu Xian,5133,Garze Zizhizhou,Sichuan,Kangon_Lex_20120621,30.56667,101.48333,513326217,465,mgar thar dagon,513326217,465,mgar thar dagon,,Daofu,G2298,rta'u rdzong,DUPLICATE,,mgar thar dgon byams pa gling,,na,慧远寺,嘎达向巴林,hui yuan si,1703,dge lugs/,5.713143086,5.713,,,,,,,,,,,,,,,,
0101000020E6100000F5673F5244E45840C5F99B5088083F40,2543,580,,,da ke si,阿察乡,Acha xiang,A Cha Xiang,513331,白玉县,Baiyu Xian,5133,Garze Zizhizhou,Sichuan,Kangon_Lex_20120621,31.03333,99.56667,513331208,361,mda' kho dagon,513331208,361,mda' kho dagon,,Baiyu,G2300,dpal yul rdzong,DUPLICATE,,mda' kho dgon (dpal yul rdzong),,na,打科寺,,da ke si,1825,rnying ma/,4.140443856,4.14,,,,,,,,,,,,,,,,
0101000020E610000072FE2614221259409999999999194040,2583,650,,,ji long si,亚龙乡,Yalong xiang,Ya Long Xiang,513333,色达县,Seda Xian,5133,Garze Zizhizhou,Sichuan,Kangon_Lex_20120621,32.2,100.28333,513333206,424,dkyil lung dgon,513333206,424,dkyil lung dgon/,,Seta,G2302,gser thar rdzong,DUPLICATE,,,,na,几龙寺,,ji long si,1832,rnying ma/,29.50722927,29.507,,,,,,,,,,,,,,,,
0101000020E610000072FE2614222259404963B48EAA4A4040,2588,655,,,zha zha si,年龙乡,Nianlong xiang,Nian Long Xiang,513333,色达县,Seda Xian,5133,Garze Zizhizhou,Sichuan,Kangon_Lex_20120621,32.58333,100.53333,513333208,434,tra tra dgon,513333208,434,tra tra dgon/,,Seta,G2302,gser thar rdzong,DUPLICATE,,,,na,扎扎寺,,zha zha si,1825,rnying ma/,4.57101065,4.571,,,,,,,,,,,,,,,,
0101000020E610000011DF89592FE65740F91400E319644040,2066,2744,,乃多寺,naiduo si,昂赛乡,Angsai xiang,Ang Sai Xiang,632722,杂多县,Zaduo Xian,6327,Yushu Zizhizhou,Qinghai,Yu_gonpa_Lex_20120622,32.78204,95.59664,632722201,128,gnas mdo gsang sngaT dar rgyas bde chen gling,632722201,128,gnas mdo gsang sngaT dar rgyas bde chen gling,,na,G2328,rdza stod rdzong,DUPLICATE,,gnas mdo dgon,,,乃多寺,年多寺,naiduo si,1440,Nendo,3.535392818,3.535,,,,,location info from ????.,,,,,,,,,,,
0101000020E61000008043A852B3C556404750FC1873A73D40,989,846,,,Norbulingka,冲赛康街道,Chongsaikang jiedao,Chong Sai Kang Jie Dao,540102,拉萨 城关区,Lhasa Chengguan Qu,5401,Lhasa Shi,Xizang,Lhasa_Lex_20120621,29.6541,91.08907,540102006,540101126,nor bu gling ga,540102006,540101126,nor bu gling ga,,Lhasa,G2800,lha sa grong khyer,DUPLICATE,,,,Norbulingka,罗布林卡,,na,1750,Gelug,282.4133504,282.413,x,x,x,x,,,,,,,,,,,,
0101000020E610000090BDDEFDF1C6564080B74082E2AF3D40,977,816,,,Drakri,公德林街道,Gongdelin jiedao,Gong De Lin Jie Dao,540102,拉萨 城关区,Lhasa Chengguan Qu,5401,Lhasa Shi,Xizang,Lhasa_Lex_20120621,29.68705,91.10852,540102001,540101128,brag ri ri khrod,540102001,540101132,brag ri ri khrod,,Lhasa,G2800,lha sa grong khyer,DUPLICATE,,,,Drakri,扎日,扎日山居修行处,na,1416,Gelug,168.8713763,168.871,x,x,x,x,,xx,,,,,,,,,,
0101000020E61000001C7233DC80C75640E36BCF2C09A83D40,2090,853,,,Potala,冲赛康街道,Chongsaikang jiedao,Chong Sai Kang Jie Dao,540102,拉萨 城关区,Lhasa Chengguan Qu,5401,Lhasa Shi,Xizang,Lhasa_Lex_20120621,29.65639,91.11724,540102006,540101101,po ta la,540102006,540101101,po ta la,,Lhasa,G2800,lha sa grong khyer,DUPLICATE,,,,Potala,布达拉宫,,na,650,non-sect,282.4133504,282.413,1650,non-sect,x,x,,,,,,,,,,,,
0101000020E61000005C3D27BD6FC8564081E7DEC325A73D40,2081,832,,,Jokhang,八廓街道,Bakuo jiedao,Ba Kuo Jie Dao,540102,拉萨 城关区,Lhasa Chengguan Qu,5401,Lhasa Shi,Xizang,Lhasa_Lex_20120621,29.65292,91.13182,540102004,540101102,lha sa gtsug lag khang,540102004,540101102,lha sa gtsug lag khang,,Lhasa,G2800,lha sa grong khyer,DUPLICATE,dup. G3777 ?,,,Jokhang,大昭寺,祖拉康/觉康,na,639,non-sect,448.7658938,448.766,x,x,x,x,,,,,,,,,,,,
0101000020E6100000BF9A030473C856409131772D21A73D40,2075,825,,,Meru Nyingpa,八廓街道,Bakuo jiedao,Ba Kuo Jie Dao,540102,拉萨 城关区,Lhasa Chengguan Qu,5401,Lhasa Shi,Xizang,Lhasa_Lex_20120621,29.65285,91.13202,540102004,540101109,Rme ru rnying pa,540102004,540101109,Rme ru rnying pa,,Lhasa,G2800,lha sa grong khyer,DUPLICATE,,,,Meru Nyingpa,旧木如寺,,na,825,non-sect,448.7658938,448.766,1750,Gelug,x,x,,,,,,,,,,,,
0101000020E6100000FF78AF5A99C85640C663062AE3A73D40,4,823,,,Meru Gonsar,八廓街道,Bakuo jiedao,Ba Kuo Jie Dao,540102,拉萨 城关区,Lhasa Chengguan Qu,5401,Lhasa Shi,Xizang,Lhasa_Lex_20120621,29.65581,91.13436,540102004,540101107,rme ru dgon gsar,540102004,540101107,rme ru dgon gsar,,Lhasa,G2800,lha sa grong khyer,DUPLICATE,,,,Meru Gonsar,新木如寺,,na,1050,?,448.7658938,448.766,1800s?,Gelug,x,x,,,,,,,,,,,,
0101000020E61000008E01D9EBDDED58407D96E7C1DD1D4040,2469,434,,,xia re guo si,查龙乡,Chalong xiang,Cha Long Xiang,513328,甘孜县,Ganzi Xian,5133,Garze Zizhizhou,Sichuan,Kangon_Lex_20120621,32.23333,99.71667,513328220,318,bru shug dgon,513328220,319,bum thang dgon/,,Kanze,G621,dkar mdzes rdzong,DUPLICATE,,dkar mdzes 'bum thang dgon,,na,中然果寺,pinyin: zhong ran guo si?,zhong re guo si,1604,rnying ma/,10.84745763,10.847,,,,,,xx,,,,,,,,,,
0101000020E61000008E01D9EBDDED58407D96E7C1DD1D4040,2470,435,,,zhong re guo si,查龙乡,Chalong xiang,Cha Long Xiang,513328,甘孜县,Ganzi Xian,5133,Garze Zizhizhou,Sichuan,Kangon_Lex_20120621,32.23333,99.71667,513328220,319,bum thang dgon,513328220,321,bru shuag dagon,,Kanze,G621,dkar mdzes rdzong,DUPLICATE,,bru shug dgon,,na,下然果寺,,xia ran guo si,1747,rnying ma/,4.160737616,10.847,,,,,,xx,,,,,,,,,,
0101000020E6100000B79C4B715505594093C6681D55953F40,113,419,,,zha ma si,拖坝乡,Tuoba xiang,Tuo Ba Xiang,513328,甘孜县,Ganzi Xian,5133,Garze Zizhizhou,Sichuan,Kangon_Lex_20120621,31.58333,100.08334,513328210,305,khang dmar dgon,513328210,305,khang dmar dgon/,,Kanze,G621,dkar mdzes rdzong,DUPLICATE,,dkar mdzes khang dmar dgon,,na,空玛寺,incorrect pinyin? 扎马寺 at Derge,zha ma si,1662,bka' brgyud/,38.19223425,38.192,,,,,,,,,,,,,,,,
0101000020E61000004963B48EAA0A59406566666666A63F40,2465,425,,,ze se jue mu si,下雄乡,Xiaxiong xiang,Xia Xiong Xiang,513328,甘孜县,Ganzi Xian,5133,Garze Zizhizhou,Sichuan,Kangon_Lex_20120621,31.65,100.16666,513328213,291,baras tshal jo mo dagon,513328213,289,bras tshal bde chen gling /,,Kanze,G621,dkar mdzes rdzong,DUPLICATE,dup. G418 ?,,,na,则色觉母寺,,ze se jue mu si,1933,rnying ma/,21.39952921,21.4,,,,,,xx,,,,,,,,,,
0101000020E6100000D7648D7A88B855406E3997E2AA6A3D40,2304,1580,,,Riwo Dratsang,,Sangsang zhen,,542327,昂仁县,Angren Xian,5423,Xigazi Diqu,Xizang,Tsanggonpa_Lex_20120622,29.41667,86.88333,542327101,542327103,bkra bzang,542327101,542327103,bkra bzang,,Ngamring,G2162,ngam ring rdzong,G00AG01622,,se bkra bzang dgon,,Riwo Dratsang,扎桑寺,日吾扎桑寺,na,1600,Nyingma,3.312,3.312,x,x,x,x,,,,,,,,,,,,
0101000020E61000006566666666A655403333333333733D40,2143,1582,,,Lhadrak,,Sangsang zhen,,542327,昂仁县,Angren Xian,5423,Xigazi Diqu,Xizang,Tsanggonpa_Lex_20120622,29.45,86.6,542327101,542327101,lha brag,542327101,542327101,lha brag,,na,G2162,ngam ring rdzong,G00AG01624,,zang zang lha brag srid gsum rnam rgyal,,Lhadrak,拉扎寺,桑桑拉扎寺,na,800,non-sect,3.312025966,3.312,x,x,x,x,"An 'Eagle's Nest' site, on cliff side about 20 km west of Sangsang, and 3 km south of Tsangpo. Date from Xian Wenwuzhi",,,,,,,,,,,
0101000020E61000000B98C0ADBB5B5640C6F99B5088083D40,1696,1535,,,Tekchokling,,Dazi xiang,,542323,江孜县,Jiangzi Xian,5423,Xigazi Diqu,Xizang,Tsanggonpa_Lex_20120622,29.03333,89.43333,542323203,542323111,theg mchog gling,542323203,542323111,theg mchog gling,,Gyangtse,G2175,rgyal rtse rdzong,G00AG01698,,,,Tekchokling,天觉林寺,,na,1550,Kagyu,9.681,9.68,1650,Nyingma,x,x,TBRC states 5th,,,,,,,,,,,
0101000020E6100000F5673F5244345740A06CCA15DEDD3C40,1739,1901,,森木寺,Senmu si,登木乡,Dengmu xiang,Deng Mu Xiang,542627,朗县,Lang Xian,5426,Nyingchi Diqu,Xizang,Kham_Lex_20120621,28.86667,92.81667,542627200,556,,542627200,556,na,,Lang,G2140,snang rdzong,G00AG01700,,,,na,森木寺,,Senmu si,na,Kagyu,2.683555174,2.684,na,na,na,na,na,,,,,,,,,,,
0101000020E610000033333333335355409999999999D93C40,2323,1639,,,Gungtang,,Zongga zhen,,542335,吉隆县,Jilong Xian,5423,Xigazi Diqu,Xizang,Tsanggonpa_Lex_20120622,28.85,85.3,542335100,542335101,rdzong dkar chos sde,542335100,542335101,rdzong dkar chos sde,,Kyirong,G2161,skyid grong rdzong,G00EGS1017104,,,,Gungtang,宗嘎曲德,,na,970,Nyingma,0.629,0.629,1650,Geluk,x,x,Perhaps founder,,,,,,,,,,,
0101000020E6100000289B7285777759403333333333F33E40,339,282,,,a ji qu deng,聂呷乡,Niexia xiang,Nie Xia Xiang,513323,丹巴县,Danba Xian,5133,Garze Zizhizhou,Sichuan,Kangon_Lex_20120621,30.95,101.86667,513323202,25,A akyabs nchoad rtean dgon,513323202,25,A akyabs nchoad rtean dgon,,Danba,G2310,rong brag rdzong,G00EGS1017632,,a skyabs mchod rten dgon,,na,阿吉曲登,阿吉曲登寺,a ji qu deng,na,dge lugs/,18.464,18.464,,,,,,,,,,,,,,,,
0101000020E6100000D95A5F24B4E9594096CFF23CB8574040,1804,11,,董日寺/雪宝顶寺 (在地名录中董日为雪宝顶）,Dong ri si - Xue bao ding si,大寨乡,Dazhai xiang,Da Zhai Xiang,513224,松潘县,Songpan Xian,5132,Aba Zizhizhou,Sichuan,Aba_Lex_20120619,32.68531,103.65162,513224204,240,Dung ri bya 'phur dgon (Dung ri bya 'phur dgon gsang chen smin grol bde chen gling),513224204,240,Dung ri bya 'phur dgon (Dung ri bya 'phur dgon gsang chen smin grol bde chen gling),,zung chu rdzong,G2333,zung chu rdzong,G00JR691,,gsang chen smin grol bde chen gling,,,董日寺,雪宝顶寺,Dong ri si/ Xue bao ding si,1108,N,4.898,4.898,,,,,,,,,,,,,,,,
0101000020E61000001B0DE02D90685940AFEB17EC86354040,559,201,,茸贡寺,Rong gong si,茸安乡,Rongan xiang,Rong An Xiang,513231,阿坝县,Aba Xian,5132,Aba Zizhizhou,Sichuan,Aba_Lex_20120619,32.41818,101.6338,513231214,207,Rong dgon bkra shis lhun grub gling (Ki rti'i ma dgon),513231214,207,Rong dgon bkra shis lhun grub gling (Ki rti'i ma dgon bkra shis lhun grub gling),rong dgon bkra shis lhun grub gling (ki rti'i ma dgon),Rnga ba rdzong,G2331,rnga ba rdzong,G00JR692,,ri dgon bkra shis lhun grub gling,,,茸贡寺,,Rong gong si,1412,G,0.928,0.928,,,,,,,,,,,,,,,,
0101000020E610000065666666663656400000000000403D40,1354,1504,,,Tashi Lhunpo,,Chengnan jiedao,,542301,日喀则市,Rikaze Shi,5423,Xigazi Diqu,Xizang,Tsanggonpa_Lex_20120622,29.25,88.85,542301001,542301,bkra shis lhun po,542301001,542301,bkra shis lhan po,,Shigatse,G2170,gzhis ka rtse rdzong,G104,,,,Tashi Lhunpo,扎什伦布寺,吉祥须弥寺,na,1447,Geluk,10.765,10.765,x,x,x,x,,,,,,,,,,,,
0101000020E610000070253B3602C35640F792C6681DAD3D40,992,855,,,Drepung,娘热乡,Niangre xiang,Niang Re Xiang,540102,拉萨 城关区,Lhasa Chengguan Qu,5401,Lhasa Shi,Xizang,Lhasa_Lex_20120621,29.67623,91.04701,540102202,540101128,bras sprungs dgon,540102202,540101128,bras sprungs dgon,,Lhasa,G2800,lha sa grong khyer,G108,,bras spungs dgon,,Drepung,哲蚌寺,,na,1416,Gelug,26.853,26.853,x,x,x,x,,,,,,,,,,,,
0101000020E6100000569FABADD8BD59409F5912A0A6CA4040,564,211,,达扎寺,Da zha si,达扎寺镇,Dazhasi zhen,Da Zha Si Zhen,513232,若尔盖县,Ruo'ergai Xian,5132,Aba Zizhizhou,Sichuan,Aba_Lex_20120619,33.58321,102.96635,513232100,178,stag tsha dgon (bkra shi chos bzang gling),513232100,178,stag tsha dgon (bkra shi chos bzang gling),,mdzod dge rdzong,G299,mdzod dge rdzong,G10MS14284,,bkra shis chos bzang gling,,,达扎寺,,Da zha si,1662,G,0.816519829,0.817,,,,,,,,,,,,,,,,
0101000020E61000009817601F9DC856407A4E7ADFF85A3D40,2287,1441,,,Dorje Drak,昌果乡,Changguo xiang,Chang Guo Xiang,542223,贡嘎县,Gongga Xian,5422,Shannan Diqu,Xizang,U_gonpa_Lex_20120622,29.35536,91.13459,542223202,542223107,rdo rje brag G11,542223202,542223107,rdo rje brag G11,,Gongkar,G2135,gong dkar rdzong,G11,,,,Dorje Drak,多吉扎寺,土登多吉扎寺,na,1650,Nyingma,8.314279776,8.314,x,x,x,x,sacked by Dzungars in 1717,,,,,,,,,,,
0101000020E610000005DD5ED218CF5640A16CCA15DE1D3D40,2278,1418,,,Dargye Choding,吉汝乡,Jiru xiang,Ji Ru Xiang,542222,扎囊县,Zhanang Xian,5422,Shannan Diqu,Xizang,U_gonpa_Lex_20120622,29.11667,91.23589,542222201,542222112,dar rgyas chos sdings,542222201,542222112,dar rgyas chos sdings,,Dranang,G799,grwa nang rdzong,G12,,dup. G532,,Dargye Choding,达杰曲林寺,,na,1600,Nyingma,12.24646001,12.246,x,x,x,x,,,,,,,,,,,,
0101000020E6100000C8C859D8D3BC5640B97020240BB03D40,1005,941,,,Gadong,羊达乡,Yangda xiang,Yang Da Xiang,540125,堆龙德庆县,Duilongdeqing Xian,5401,Lhasa Shi,Xizang,U_gonpa_Lex_20120622,29.68767,90.95043,540125203,540125109,dga' gdong dgon,540125203,540125109,dga' gdong dgon,,Tolung Dechen,G1325,stod lung bde chen rdzong,G1213,,,,Gadong,嘎东寺,,na,1600,Gelug,17.98431768,17.984,x,x,x,x,,,,,,,,,,,,
0101000020E61000000000000000005640A06CCA15DE5D3D40,1503,1577,,,Puntsokling,,Pengcuolin xiang,,542326,拉孜县,Lazi Xian,5423,Xigazi Diqu,Xizang,Tsanggonpa_Lex_20120622,29.36667,88,542326208,542326112,phun tshogs gling,542326208,542326112,phun tshogs gling,,Lhatse,G2167,lha rtse rdzong,G1219,,gtsang Phun tshogs gling Bkra shis 'dzoms pa,,Puntsokling,平措林寺,,na,1294,Jonang,3.527336861,3.527,1658,Geluk,x,x,,,,,,,,,,,,
0101000020E6100000CB9C2E8B897F5940E08442041C6E4040,1877,207,,郎措玛寺,Lang cuo ma si,麦尔玛乡,Maierma xiang,Mai Er Ma Xiang,513231,阿坝县,Aba Xian,5132,Aba Zizhizhou,Sichuan,Aba_Lex_20120619,32.86023,101.99277,513231216,217,Rme'u ru ma'i gnam mtsho dgon (Gnam mtso ma'I sbra sde dgon - bkra shis gtsug lag bshad sgrub 'phel rgyas gling),513231216,217,Rme'u ru ma'i gnam mtsho dgon (Gnam mtso ma'I sbra sde dgon/ bkra shis gtsug lag bshad sgrub 'phel rgyas gling),,Rnga ba rdzong,G2331,rnga ba rdzong,G1372,,rme'u ru ma'i gnam mtsho dgon,,,朗措玛寺,天海金盘寺,Lang cuo ma si,1872,N,2.05554071,2.056,,,,,,,,,,,,,,,,
0101000020E6100000478FDFDBF4D956402BA4FCA4DA2F3D40,2272,1407,,,Mindroling,扎塘镇,Zhatang zhen,Zha Tang Zhen,542222,扎囊县,Zhanang Xian,5422,Shannan Diqu,Xizang,U_gonpa_Lex_20120622,29.18693,91.40557,542222100,542222115,smin grol gling G14,542222100,542222115,smin grol gling,,Dranang,G799,grwa nang rdzong,G14,,,,Mindroling,敏珠林寺,敏卓林,na,1676,Nyingma,18.98734177,18.987,x,x,x,x,,,,,,,,,,,,
0101000020E6100000289B728577A75740FFFFFFFFFF7F3D40,1424,1858,,德木寺,Demu si,林芝镇,Linzhi zhen,Lin Zhi Zhen,542621,林芝县,Linzhi Xian,5426,Nyingchi Diqu,Xizang,Kham_Lex_20120621,29.5,94.61667,542621101,519,,542621101,519,na,,Linzhi,G2123,nying khri rdzong,G1438,,kong po De mo,,na,第穆寺,德穆寺,Demu si,na,Geluk,1.794945434,1.795,na,na,na,na,na,,,,,,,,,,,
0101000020E610000066666666666656402C6002B7EEEE3C40,2783,1530,,,Palkhor Chode,,Jiangzi zhen,,542323,江孜县,Jiangzi Xian,5423,Xigazi Diqu,Xizang,Tsanggonpa_Lex_20120622,28.93333,89.6,542323100,542323105,dpal 'khor chos sde,542323100,542323105,dpal 'khor chos sde,,Gyangtse,G2175,rgyal rtse rdzong,G1511,,,,Palkhor Chode,白居寺,江孜白居寺,na,1418,Sakya,27.01242572,27.012,1650,Sakya-Geluk,x,x,TBRC lists founding in 1440,,,,,,,,,,,
0101000020E6100000CDCCCCCCCCCC584007D3307C44443C40,1594,801,,噶丹东竹林寺,Gadandongzhulin si,奔子栏乡,Benzilan xiang,Ben Zi Lan Xiang,533422,德钦县,Deqin Xian,5334,Deqen Zizhizhou,Yunnan,Yunnan_Lex_20120622,28.26667,99.2,533422205,8,na,533422205,8,na,,Deqin,G1522,bde chen rdzong,G1527,,sbom rag dga' ldan don grub gling,,Tongtaling,噶丹东竹林寺,冲冲错岗衮,Gadandongzhulin si,na,Kagyu,3.309504898,3.31,1667,Geluk,,,Extant or Rebuilt,,,,,,,,,,,
0101000020E61000009999999999E958406666666666E63F40,365,404,,,sang zhu si,扎科乡,Zhake xiang,Zha Ke Xiang,513328,甘孜县,Ganzi Xian,5133,Garze Zizhizhou,Sichuan,Kangon_Lex_20120621,31.9,99.65,513328205,303,bsam grub dgon,513328205,303,bsam grub dgon/,,Kanze,G621,dkar mdzes rdzong,G1531,,,,na,桑珠寺,,sang zhu si,1662,dge lugs/,1.70943093,1.709,,,,,,,,,,,,,,,,
0101000020E61000006666666666E65840D39FFD4811913C40,2171,792,,滚思寺,Gunsi si,东旺乡,Dongwang xiang,Dong Wang Xiang,533421,中甸县,Zhongdian Xian,5334,Deqen Zizhizhou,Yunnan,Yunnan_Lex_20120622,28.56667,99.6,533421207,36,na,533421207,35,na,,Zhongdian,G1520,rgyal thang rdzong,G1534,in 'ba'thang ?,yon tan dgon,,na,云登寺,,Yundeng si,1948,Nyingma,2.269297539,2.269,,,,,Extant or Rebuilt,,,,,,,,,,,
0101000020E61000009CE1067C7EC856405FD218ADA3B23D40,981,821,,,Sera,扎细街道,Zhaxi jiedao,Zha Xi Jie Dao,540102,拉萨 城关区,Lhasa Chengguan Qu,5401,Lhasa Shi,Xizang,Lhasa_Lex_20120621,29.69781,91.13272,540102002,540101136,ser ra dgon,540102002,540101136,ser ra dgon,,Lhasa,G2800,lha sa grong khyer,G154,,,,Sera,色拉寺,,na,1419,Gelug,127.7955272,127.796,x,x,x,x,,,,,,,,,,,,
0101000020E61000008E01D9EBDDED58402C6002B7EEAE3F40,112,416,,,ge sha si,来马乡,Laima xiang,Lai Ma Xiang,513328,甘孜县,Ganzi Xian,5133,Garze Zizhizhou,Sichuan,Kangon_Lex_20120621,31.68333,99.71667,513328206,313,dgon gsar dgon,513328206,313,dgon gsar dgon/,,Kanze,G621,dkar mdzes rdzong,G1540,,dkar mdzes dgon gsar dgon,,na,格沙寺,,ge sha si,1887,bka' brgyud/,56.40647373,56.406,,,,,,,,,,,,,,,,
0101000020E61000003ECBF3E0EEEE58406D3997E2AAAA3F40,111,409,,,ka gong jue mu si,来马乡,Laima xiang,Lai Ma Xiang,513328,甘孜县,Ganzi Xian,5133,Garze Zizhizhou,Sichuan,Kangon_Lex_20120621,31.66667,99.73333,513328206,293,mkhar mgo jo mo dgon,513328206,293,mkhar mgo jo mo dgon/,,Kanze,G621,dkar mdzes rdzong,G1541,,,,na,卡攻觉母寺,,ka gong jue mu si,1924,bka' brgyud/,56.40647373,56.406,,,,,,,,,,,,,,,,
0101000020E6100000CDCCCCCCCC0C59400100000000C03F40,375,426,,,dong gu si,四通达乡,Sitongda xiang,Si Tong Da Xiang,513328,甘孜县,Ganzi Xian,5133,Garze Zizhizhou,Sichuan,Kangon_Lex_20120621,31.75,100.2,513328214,296,stong 'khor dgon,513328214,296,stong 'khor dgon/,,Kanze,G621,dkar mdzes rdzong,G1542,,,,na,东谷寺,东古寺,dong gu si,1474,dge lugs/,5.523336095,5.523,,,,,,,,,,,,,,,,
0101000020E6100000C2340C1F111159403233333333F33F40,377,428,,,da ji ling si,泥柯乡,Nike xiang,Ni Ke Xiang,513328,甘孜县,Ganzi Xian,5133,Garze Zizhizhou,Sichuan,Kangon_Lex_20120621,31.95,100.26667,513328216,298,nyi thang bkra shis dar rgyas gling,513328216,298,nyi thang bkra shis dar rgyas gling /,,Kanze,G621,dkar mdzes rdzong,G1545,,,,na,大吉岭寺,,da ji ling si,1650,dge lugs/,13.91556038,13.916,,,,,Mid-17th c. (17????).,,,,,,,,,,,
0101000020E61000008E01D9EBDDED58402C6002B7EEAE3F40,367,410,,,zha jue si,来马乡,Laima xiang,Lai Ma Xiang,513328,甘孜县,Ganzi Xian,5133,Garze Zizhizhou,Sichuan,Kangon_Lex_20120621,31.68333,99.71667,513328206,307,brag lcog dgon,513328206,307,brag lcog dgon/,,Kanze,G621,dkar mdzes rdzong,G1546,,,,na,扎觉寺,,zha jue si,1410,dge lugs/,56.40647373,56.406,,,,,,,,,,,,,,,,
0101000020E61000008E01D9EBDDED58402C6002B7EEAE3F40,368,411,,,zhi su si,来马乡,Laima xiang,Lai Ma Xiang,513328,甘孜县,Ganzi Xian,5133,Garze Zizhizhou,Sichuan,Kangon_Lex_20120621,31.68333,99.71667,513328206,308,rtsis tshang dgon,513328206,308,rtsis tshang dgon/,,Kanze,G621,dkar mdzes rdzong,G1548,,rtsis tshang a ne dgon,,na,孜苏寺,pinyin: zi su si?,zhi su si,1662,dge lugs/,56.40647373,56.406,,,,,,,,,,,,,,,,
0101000020E61000009A999999990959409A99999999D93F40,376,427,,,luo e si,夺多乡,Duoduo xiang,Duo Duo Xiang,513328,甘孜县,Ganzi Xian,5133,Garze Zizhizhou,Sichuan,Kangon_Lex_20120621,31.85,100.15,513328215,297,lu gu dgon,513328215,297,lu gu dgon/,,Kanze,G621,dkar mdzes rdzong,G1550,,,,na,洛俄寺,,luo e si,1725,dge lugs/,1.964096319,1.964,,,,,Early 18th c. (18????).,,,,,,,,,,,
0101000020E61000008E01D9EBDDED58402C6002B7EEAE3F40,369,412,,,ha du jue mu si,来马乡,Laima xiang,Lai Ma Xiang,513328,甘孜县,Ganzi Xian,5133,Garze Zizhizhou,Sichuan,Kangon_Lex_20120621,31.68333,99.71667,513328206,309,ha d+hi dge tshul,513328206,309,ha d+hi dge tshul/,,Kanze,G621,dkar mdzes rdzong,G1551,,ha dhi dge tshul dgon,,na,哈都觉母寺,,ha du jue mu si,1925,dge lugs/,56.40647373,56.406,,,,,Early 20th c. (20????).,,,,,,,,,,,
0101000020E6100000B79C4B715505594093C6681D55953F40,372,418,,,ni mo jue mu si,拖坝乡,Tuoba xiang,Tuo Ba Xiang,513328,甘孜县,Ganzi Xian,5133,Garze Zizhizhou,Sichuan,Kangon_Lex_20120621,31.58333,100.08334,513328210,304,stong 'khor gnas nang jo mo dgon,513328210,304,stong 'khor gnas nang jo mo dgon/,,Kanze,G621,dkar mdzes rdzong,G1553,,,,na,尼莫觉母寺,,ni mo jue mu si,na,dge lugs/,38.19223425,38.192,,,,,,,,,,,,,,,,
0101000020E61000000A98C0ADBB4B59403333333333F33E40,354,353,,,tong fo shan jue mu si,格西乡,Gexi xiang,Ge Xi Xiang,513326,道孚县,Daofu Xian,5133,Garze Zizhizhou,Sichuan,Kangon_Lex_20120621,30.95,101.18333,513326200,471,brag dakr jo mo dagon,513326200,471,brag dakr jo mo dagon,,Daofu,G2298,rta'u rdzong,G1555,seems not at Kanze County (checked from pinyin ),,,na,铜佛山觉母寺,,tong fo shan jue mu si,1987,dge lugs/,5.692167577,5.692,,,,,,,,,,,,,,,,
0101000020E61000008E01D9EBDDED58407D96E7C1DD1D4040,2471,436,,,zha la si,查龙乡,Chalong xiang,Cha Long Xiang,513328,甘孜县,Ganzi Xian,5133,Garze Zizhizhou,Sichuan,Kangon_Lex_20120621,32.23333,99.71667,513328220,320,gra lag dgon,513328220,320,gra lag dgon/,,Kanze,G621,dkar mdzes rdzong,G1556,,dge rtse bkra legs dgon,,na,扎拉寺,,zha la si,1125,rnying ma/,10.84745763,10.847,,,,,Early 12th c. (12????).,,,,,,,,,,,
0101000020E61000004963B48EAA0A59406566666666A63F40,2678,424,,,ri rao si,下雄乡,Xiaxiong xiang,Xia Xiong Xiang,513328,甘孜县,Ganzi Xian,5133,Garze Zizhizhou,Sichuan,Kangon_Lex_20120621,31.65,100.16666,513328213,290,ri brag dgon,513328213,290,ri brag dgon/,ri brag dgon,Kanze,G621,dkar mdzes rdzong,G1557,,,,na,日绕寺,,ri rao si,1775,sa skya/,21.39952921,21.4,,,,,Late 18th c. (18????).,,,,,,,,,,,
0101000020E6100000C2340C1F111159403233333333F33F40,378,432,,,da ji ling si,泥柯乡,Nike xiang,Ni Ke Xiang,513328,甘孜县,Ganzi Xian,5133,Garze Zizhizhou,Sichuan,Kangon_Lex_20120621,31.95,100.26667,513328216,302,dar rgyas dagon,513328216,302,dar rgyas dagon,,Kanze,G621,dkar mdzes rdzong,G1558,,dar rgyas dgon (dkar mdzes rdzong),,na,大吉岭寺,,da ji ling si,1600,dge lugs/,13.91556038,13.916,,,,,,,,,,,,,,,,
0101000020E61000008F368E588BC956401F5ED72FD8B53D40,1602,863,,,Phurbuchok,夺底乡,Duodi xiang,Duo Di Xiang,540102,拉萨 城关区,Lhasa Chengguan Qu,5401,Lhasa Shi,Xizang,Lhasa_Lex_20120621,29.71033,91.14913,540102203,540101140,phur bu lcog,540102203,540101140,phur bu lcog,,Lhasa,G2800,lha sa grong khyer,G156,,phur bu lcog ri khrod byang chub gling,,Phurbuchok,普布觉寺,普觉寺,na,1150,Kagyu,133.9136257,133.914,1750,Gelug,x,x,,,,,,,,,,,,
0101000020E61000008E01D9EBDDED58402C6002B7EEAE3F40,370,413,,,yan ji jue mu si,来马乡,Laima xiang,Lai Ma Xiang,513328,甘孜县,Ganzi Xian,5133,Garze Zizhizhou,Sichuan,Kangon_Lex_20120621,31.68333,99.71667,513328206,310,nya rgyas jo mo dgon,513328206,310,nya rgyas jo mo dgon/,,Kanze,G621,dkar mdzes rdzong,G1560,,,,na,严吉觉母寺,,yan ji jue mu si,na,dge lugs/,56.40647373,56.406,,,,,,,,,,,,,,,,
0101000020E6100000C2340C1F111159403233333333F33F40,2466,429,,,mu qing si,泥柯乡,Nike xiang,Ni Ke Xiang,513328,甘孜县,Ganzi Xian,5133,Garze Zizhizhou,Sichuan,Kangon_Lex_20120621,31.95,100.26667,513328216,299,bol chen dgon,513328216,299,bol chen dgon/,,Kanze,G621,dkar mdzes rdzong,G1561,,dkar mdzes 'bol chen dgon,,na,木青寺,,mu qing si,1675,rnying ma/,13.91556038,13.916,,,,,Late 17th c. (17`????).,,,,,,,,,,,
0101000020E6100000289B728577F75840A06CCA15DE9D3F40,364,399,,,bai li si,生康乡,Shengkang xiang,Sheng Kang Xiang,513328,甘孜县,Ganzi Xian,5133,Garze Zizhizhou,Sichuan,Kangon_Lex_20120621,31.61667,99.86667,513328203,323,be ri dgon,513328203,323,be ri dgon/,,Kanze,G621,dkar mdzes rdzong,G1562,,,,na,白利寺,,bai li si,1649,dge lugs/,55.66895528,55.669,,,,,,,,,,,,,,,,
0101000020E6100000C2340C1F111159403233333333F33F40,2467,430,,,xi qing si,泥柯乡,Nike xiang,Ni Ke Xiang,513328,甘孜县,Ganzi Xian,5133,Garze Zizhizhou,Sichuan,Kangon_Lex_20120621,31.95,100.26667,513328216,300,gzhi chen dgon,513328216,300,gzhi chen dgon/,,Kanze,G621,dkar mdzes rdzong,G1563,,dkar mdzes gzhi chen dgon,,na,昔青寺,,xi qing si,1664,rnying ma/,13.91556038,13.916,,,,,,,,,,,,,,,,
0101000020E6100000D8648D7A889858401D03B2D7BB5B4040,399,629,,,ta xv si,虾扎乡,Xiazha xiang,Xia Zha Xiang,513332,石渠县,Shiqu Xian,5133,Garze Zizhizhou,Sichuan,Kangon_Lex_20120621,32.71667,98.38333,513332212,398,thar shual dagon,513332212,398,thar shual dagon,,Seshul,G2301,ser shul rdzong,G1564,,thar shul dgon (ser shul rdzong),,na,它须寺,,ta xv si,1730,dge lugs/,3.858024691,3.858,,,,,,,,,,,,,,,,
0101000020E61000008E01D9EBDDED58402C6002B7EEAE3F40,371,417,,,ha dou jue mu si,来马乡,Laima xiang,Lai Ma Xiang,513328,甘孜县,Ganzi Xian,5133,Garze Zizhizhou,Sichuan,Kangon_Lex_20120621,31.68333,99.71667,513328206,314,h dhi jo mo dagon,513328206,314,h dhi jo mo dagon,ha dhi jo mo dgon,Kanze,G621,dkar mdzes rdzong,G1565,,,,na,哈都觉母寺,,ha dou jue mu si,1925,dge lugs/,56.40647373,56.406,,,,,,,,,,,,,,,,
0101000020E61000008E01D9EBDDFD58409999999999993F40,2674,396,,,duo tuo si,呷拉乡,Xiala xiang,Xia La Xiang,513328,甘孜县,Ganzi Xian,5133,Garze Zizhizhou,Sichuan,Kangon_Lex_20120621,31.6,99.96667,513328200,295,gdong thog dgon,513328200,295,gdong thog dgon/,,Kanze,G621,dkar mdzes rdzong,G1567,,,,na,夺拖寺,,duo tuo si,1587,sa skya/,56.75368899,56.754,,,,,,,,,,,,,,,,
0101000020E6100000289B728577F75840A06CCA15DE9D3F40,2460,400,,,ge lu si,生康乡,Shengkang xiang,Sheng Kang Xiang,513328,甘孜县,Ganzi Xian,5133,Garze Zizhizhou,Sichuan,Kangon_Lex_20120621,31.61667,99.86667,513328203,324,gur lung dgon,513328203,324,gur lung dgon/,,Kanze,G621,dkar mdzes rdzong,G1568,,,,na,格鲁寺,,ge lu si,1556,rnying ma/,55.66895528,55.669,,,,,,,,,,,,,,,,
0101000020E61000000B98C0ADBBEB58406D3997E2AAAA3F40,110,407,,,bai ge si,来马乡,Laima xiang,Lai Ma Xiang,513328,甘孜县,Ganzi Xian,5133,Garze Zizhizhou,Sichuan,Kangon_Lex_20120621,31.66667,99.68333,513328206,317,paN rgan dgon,513328206,317,paN rgan dgon/,,Kanze,G621,dkar mdzes rdzong,G1569,,,,na,白格寺,,bai ge si,na,bka' brgyud/,56.40647373,56.406,,,,,,,,,,,,,,,,
0101000020E610000094DE37BEF6C85640AF946588639D3D40,983,834,,,Tsemchokling,八廓街道,Bakuo jiedao,Ba Kuo Jie Dao,540102,城关区,Chengguan Qu,5401,Lhasa Shi,Xizang,U_gonpa_Lex_20120622,29.6148,91.14006,540102004,540101146,tshe mchog gling,540102004,540101146,tshe mchog gling,,Lhasa,G2800,lha sa grong khyer,G157,,,,Tsemchokling,策觉林寺,治策却林/蔡却林,na,1750,Gelug,448.7658938,448.766,x,x,x,x,,,,,,,,,,,,
0101000020E6100000FFFFFFFFFFEF58406566666666264040,2679,433,,,ka long si,卡龙乡,Kalong xiang,Ka Long Xiang,513328,甘孜县,Ganzi Xian,5133,Garze Zizhizhou,Sichuan,Kangon_Lex_20120621,32.3,99.75,513328219,294,kha non dgon,513328219,294,kha non dgon/,,Kanze,G621,dkar mdzes rdzong,G1571,,,,na,卡龙寺,,ka long si,1257,sa skya/,2.487190967,2.487,,,,,,,,,,,,,,,,
0101000020E6100000C2340C1F1101594093C6681D55953F40,363,397,,,zha xia jue mu si,色西底乡,Sexidi xiang,Se Xi Di Xiang,513328,甘孜县,Ganzi Xian,5133,Garze Zizhizhou,Sichuan,Kangon_Lex_20120621,31.58333,100.01667,513328201,328,brag dkar jo mo dgon,513328201,328,brag dkar jo mo dgon/,brag dkar jo mo dgon,Kanze,G621,dkar mdzes rdzong,G1572,,,,na,扎呷觉母寺,zha ga jue mu si,zha xia jue mu si,1737,dge lugs/,16.54807215,16.548,,,,,,,,,,,,,,,,
0101000020E6100000B79C4B7155F558406566666666A63F40,273,402,,,ying zhu neng si,贡隆乡,Gonglong xiang,Gong Long Xiang,513328,甘孜县,Ganzi Xian,5133,Garze Zizhizhou,Sichuan,Kangon_Lex_20120621,31.65,99.83334,513328204,330,bon po dgon,513328204,330,bon po dgon/,,Kanze,G621,dkar mdzes rdzong,G1573,,dkar mdzes bon po dgon,,na,英珠能寺,,ying zhu neng si,na,bon po/,8.524785815,8.525,,,,,,,,,,,,,,,,
0101000020E61000000B98C0ADBBEB58406D3997E2AAAA3F40,2461,405,,,a se duo long si,来马乡,Laima xiang,Lai Ma Xiang,513328,甘孜县,Ganzi Xian,5133,Garze Zizhizhou,Sichuan,Kangon_Lex_20120621,31.66667,99.68333,513328206,315,a bse dgon,513328206,315,a bse dgon/,,Kanze,G621,dkar mdzes rdzong,G1574,,,,na,阿色夺龙寺,阿色寺,a se duo long si,1838,rnying ma/,56.40647373,56.406,,,,,,,,,,,,,,,,
0101000020E6100000B79C4B715505594093C6681D55953F40,373,420,,,ni mo jue mo si,拖坝乡,Tuoba xiang,Tuo Ba Xiang,513328,甘孜县,Ganzi Xian,5133,Garze Zizhizhou,Sichuan,Kangon_Lex_20120621,31.58333,100.08334,513328210,306,gnas nang jo mo dagon,513328210,306,gnas nang jo mo dagon,,Kanze,G621,dkar mdzes rdzong,G1575,,,,na,尼莫觉母寺,,ni mo jue mo si,na,dge lugs/,38.19223425,38.192,,,,,,,,,,,,,,,,
0101000020E61000003ECBF3E0EEEE58406D3997E2AAAA3F40,366,408,,,da jin si,来马乡,Laima xiang,Lai Ma Xiang,513328,甘孜县,Ganzi Xian,5133,Garze Zizhizhou,Sichuan,Kangon_Lex_20120621,31.66667,99.73333,513328206,292,dar rgyas dgon,513328206,292,dar rgyas dgon/,,Kanze,G621,dkar mdzes rdzong,G1577,,dar rgyas dgon (dkar mdzes rdzong),,na,大金寺,兴旺寺,da jin si,1540,dge lugs/,56.40647373,56.406,,,,,,,,,,,,,,,,
0101000020E61000008E01D9EBDDED58402C6002B7EEAE3F40,2462,414,,,leng da si,来马乡,Laima xiang,Lai Ma Xiang,513328,甘孜县,Ganzi Xian,5133,Garze Zizhizhou,Sichuan,Kangon_Lex_20120621,31.68333,99.71667,513328206,311,gling mda' dgon,513328206,311,gling mda' dgon/,,Kanze,G621,dkar mdzes rdzong,G1578,,,,na,冷达寺,,leng da si,1875,rnying ma/,56.40647373,56.406,,,,,Late 19th c. (19????).,,,,,,,,,,,
0101000020E610000033333333331359402C6002B7EE2E3F40,2484,454,,,jiang jue si,乐安乡,Lean xiang,Le An Xiang,513329,新龙县,Xinlong Xian,5133,Garze Zizhizhou,Sichuan,Kangon_Lex_20120621,31.18333,100.3,513329201,178,byams 'byor dgon,513329201,179,byung khungs dgon/,,Xinlong,G1246,nyag rong rdzong,G1579,,,,na,尼古寺,,ni gu si,1325,rnying ma/,10.06684384,10.067,,,,,Early 14th c. (14????).,xx,,,,,,,,,,
0101000020E6100000F5673F52440459405F9335EA21E23E40,2508,493,,,zhi ri na wa si,通宵乡,Tongxiao xiang,Tong Xiao Xiang,513329,新龙县,Xinlong Xian,5133,Garze Zizhizhou,Sichuan,Kangon_Lex_20120621,30.88333,100.06667,513329214,228,gru reng na ba dgon,513329214,228,gru reng na ba dgon/,,Xinlong,G1246,nyag rong rdzong,G1580,,,,na,值日纳瓦寺,值日寺/纳瓦寺,zhi ri na wa si,1350,rnying ma/,8.3044408,8.304,,,,,14th c. (14??).,,,,,,,,,,,
0101000020E610000033333333331359402C6002B7EE2E3F40,2485,455,,,ni gu si,乐安乡,Lean xiang,Le An Xiang,513329,新龙县,Xinlong Xian,5133,Garze Zizhizhou,Sichuan,Kangon_Lex_20120621,31.18333,100.3,513329201,179,byung khungs dgon,513329201,181,byuang khuangas dagon,byung khungs dgon,Xinlong,G1246,nyag rong rdzong,G1581,,,,na,尼吉寺,,ni ji si,1325,rnying ma/,10.06684384,10.067,,,,,,,,,,,,,,,,
0101000020E6100000289B7285770759403A0664AF77773F40,2481,451,,,e ba si,沙堆乡,Shadui xiang,Sha Dui Xiang,513329,新龙县,Xinlong Xian,5133,Garze Zizhizhou,Sichuan,Kangon_Lex_20120621,31.46667,100.11667,513329200,215,sa stod zhi ba dgon,513329200,215,sa stod zhi ba dgon/,,Xinlong,G1246,nyag rong rdzong,G1582,,,,na,俄巴寺,,e ba si,750,rnying ma/,5.306376938,5.306,,,,,Mid-8th c. (8????).,,,,,,,,,,,
0101000020E61000006566666666F658409A99999999D93E40,2512,497,,,you yi gu luo si,友谊乡,Youyi xiang,You Yi Xiang,513329,新龙县,Xinlong Xian,5133,Garze Zizhizhou,Sichuan,Kangon_Lex_20120621,30.85,99.85,513329215,189,ku lung 'brog dgon,513329215,189,ku lung 'brog dgon/,,Xinlong,G1246,nyag rong rdzong,G1583,,,,na,尤依古洛寺,,you yi gu luo si,na,rnying ma/,3.648702886,3.649,,,,,,,,,,,,,,,,
0101000020E6100000F5673F52440459405F9335EA21E23E40,2509,494,,,gu luo si,通宵乡,Tongxiao xiang,Tong Xiao Xiang,513329,新龙县,Xinlong Xian,5133,Garze Zizhizhou,Sichuan,Kangon_Lex_20120621,30.88333,100.06667,513329214,229,ku lung rong dgon,513329214,229,ku lung rong dgon/,,Xinlong,G1246,nyag rong rdzong,G1584,,,,na,古洛寺,,gu luo si,na,rnying ma/,8.3044408,8.304,,,,,,,,,,,,,,,,
0101000020E6100000F5673F52440459405F9335EA21E23E40,2510,495,,,suo deng si,通宵乡,Tongxiao xiang,Tong Xiao Xiang,513329,新龙县,Xinlong Xian,5133,Garze Zizhizhou,Sichuan,Kangon_Lex_20120621,30.88333,100.06667,513329214,230,gsang bdag dgon,513329214,230,gsang bdag dgon/,,Xinlong,G1246,nyag rong rdzong,G1585,,,,na,所登寺,,suo deng si,1750,rnying ma/,8.3044408,8.304,,,,,18th c. (18??),,,,,,,,,,,
0101000020E61000003DCBF3E0EE0E5940D39FFD4811513F40,2488,459,,,ba ru si,大盖乡,Dagai xiang,Da Gai Xiang,513329,新龙县,Xinlong Xian,5133,Garze Zizhizhou,Sichuan,Kangon_Lex_20120621,31.31667,100.23333,513329202,194,dpal ri dgon,513329202,194,dpal ri dgon/,,Xinlong,G1246,nyag rong rdzong,G1586,,,,na,巴如寺,,ba ru si,1250,rnying ma/,8.500716489,8.501,,,,,13th c. (13??),,,,,,,,,,,
0101000020E6100000F5673F52441459403A0664AF77F73E40,2474,443,,,ze re si,茹龙镇,Rulong zhen,Ru Long Zhen,513329,新龙县,Xinlong Xian,5133,Garze Zizhizhou,Sichuan,Kangon_Lex_20120621,30.96667,100.31667,513329100,198,rtswa rwa dgon,513329100,198,rtswa rwa dgon/,,Xinlong,G1246,nyag rong rdzong,G1587,,,,na,则热寺,,ze re si,na,rnying ma/,77.1654556,77.165,,,,,,,,,,,,,,,,
0101000020E610000033333333331359409999999999193F40,2495,466,,,e wo si,绕鲁乡,Raolu xiang,Rao Lu Xiang,513329,新龙县,Xinlong Xian,5133,Garze Zizhizhou,Sichuan,Kangon_Lex_20120621,31.1,100.3,513329203,225,zhi ba dgon,513329203,225,zhi ba dgon/,,Xinlong,G1588,nyag rong rdzong,G1588,,nyag rong zhi ba dgon,,na,俄沃寺,,e wo si,1225,rnying ma/,4.24376167,4.244,,,,,Early 13th c. (13????).,,,,,,,,,,,
0101000020E6100000CDCCCCCCCC0C59406666666666663F40,2493,464,,,tang bo si,大盖乡,Dagai xiang,Da Gai Xiang,513329,新龙县,Xinlong Xian,5133,Garze Zizhizhou,Sichuan,Kangon_Lex_20120621,31.4,100.2,513329202,212,gzur lha 'bum dgon,513329202,212,gzur lha 'bum dgon/,,Xinlong,G1246,nyag rong rdzong,G1589,,,,na,汤波寺,,tang bo si,1675,rnying ma/,8.500716489,8.501,,,,,Late 17th c. (17????).,,,,,,,,,,,
0101000020E6100000F5673F5244145940FFFFFFFFFFFF3E40,2479,448,,,jia zi si,茹龙镇,Rulong zhen,Ru Long Zhen,513329,新龙县,Xinlong Xian,5133,Garze Zizhizhou,Sichuan,Kangon_Lex_20120621,31,100.31667,513329100,220,ja bzi dgon,513329100,220,ja bzi dgon/,,Xinlong,G1246,nyag rong rdzong,G1590,,,,na,甲孜寺,,jia zi si,1866,rnying ma/,77.1654556,77.165,,,,,,,,,,,,,,,,
0101000020E61000003DCBF3E0EE0E5940D39FFD4811513F40,2489,460,,,tu mu si,大盖乡,Dagai xiang,Da Gai Xiang,513329,新龙县,Xinlong Xian,5133,Garze Zizhizhou,Sichuan,Kangon_Lex_20120621,31.31667,100.23333,513329202,195,a bse klu rab dgon,513329202,195,a bse klu rab dgon/,,Xinlong,G1246,nyag rong rdzong,G1591,,,,na,土木寺,,tu mu si,1896,rnying ma/,8.500716489,8.501,,,,,,,,,,,,,,,,
0101000020E6100000F5673F52441459402D6002B7EEEE3E40,275,439,,,mu le si,茹龙镇,Rulong zhen,Ru Long Zhen,513329,新龙县,Xinlong Xian,5133,Garze Zizhizhou,Sichuan,Kangon_Lex_20120621,30.93333,100.31667,513329100,222,mi nub dgon,513329100,222,mi nub dgon/,,Xinlong,G1246,nyag rong rdzong,G1592,,,,na,木勒寺,,mu le si,na,bon po/,77.1654556,77.165,,,,,,,,,,,,,,,,
0101000020E6100000F5673F52441459403A0664AF77F73E40,2475,444,,,zhu gong si,茹龙镇,Rulong zhen,Ru Long Zhen,513329,新龙县,Xinlong Xian,5133,Garze Zizhizhou,Sichuan,Kangon_Lex_20120621,30.96667,100.31667,513329100,199,brog khang dgon,513329100,221,a dkar dgon/,,Xinlong,G1246,nyag rong rdzong,G1592,,,,na,阿嘎寺,,a ga si,1627,rnying ma/,77.1654556,77.165,,,,,,xx,,,,,,,,,,
0101000020E6100000F5673F524414594093C6681D55153F40,2496,467,,,e ruo si,色威乡,Sewei xiang,Se Wei Xiang,513329,新龙县,Xinlong Xian,5133,Garze Zizhizhou,Sichuan,Kangon_Lex_20120621,31.08333,100.31667,513329204,226,gu ru dgon,513329204,226,gu ru dgon/,,Xinlong,G1246,nyag rong rdzong,G1593,,,,na,俄若寺,,e ruo si,1491,rnying ma/,2.877201059,2.877,,,,,,,,,,,,,,,,
0101000020E6100000289B7285770759403A0664AF77773F40,2482,452,,,song ta si,沙堆乡,Shadui xiang,Sha Dui Xiang,513329,新龙县,Xinlong Xian,5133,Garze Zizhizhou,Sichuan,Kangon_Lex_20120621,31.46667,100.11667,513329200,216,bsam gtan dgon,513329200,216,bsam gtan dgon/,,Xinlong,G1246,nyag rong rdzong,G1594,,,,na,松他寺,,song ta si,1782,rnying ma/,5.306376938,5.306,,,,,,,,,,,,,,,,
0101000020E6100000CDCCCCCCCC0C59406666666666663F40,2494,465,,,tang bo si,大盖乡,Dagai xiang,Da Gai Xiang,513329,新龙县,Xinlong Xian,5133,Garze Zizhizhou,Sichuan,Kangon_Lex_20120621,31.4,100.2,513329202,213,lh 'buam dagon,513329202,213,lh 'buam dagon,,na,G1246,nyag rong rdzong,G1595,,nyag rong gzur lha 'bum dgon,,na,汤波寺,,tang bo si,1675,rnying ma/,3.733467738,8.501,,,,,,,,,,,,,,,,
0101000020E6100000F5673F52441459403A0664AF77F73E40,2476,445,,,qiang dui si,茹龙镇,Rulong zhen,Ru Long Zhen,513329,新龙县,Xinlong Xian,5133,Garze Zizhizhou,Sichuan,Kangon_Lex_20120621,30.96667,100.31667,513329100,200,lcags mdud dgon,513329100,200,lcags mdud dgon/,,Xinlong,G1246,nyag rong rdzong,G1596,,,,na,羌堆寺,,qiang dui si,1291,rnying ma/,77.1654556,77.165,,,,,,,,,,,,,,,,
0101000020E6100000C2340C1F111159406766666666A63E40,2505,488,,,luo gu si,洛古乡,Luogu xiang,Luo Gu Xiang,513329,新龙县,Xinlong Xian,5133,Garze Zizhizhou,Sichuan,Kangon_Lex_20120621,30.65,100.26667,513329211,218,nor khog dgon,513329211,218,nor khog dgon/,,Xinlong,G1246,nyag rong rdzong,G1597,,,,na,洛古寺,,luo gu si,na,rnying ma/,3.324136556,3.324,,,,,,,,,,,,,,,,
0101000020E61000006666666666B65840D39FFD4811114040,2519,523,,,zhu qing si,竹庆乡,Zhuqing xiang,Zhu Qing Xiang,513330,德格县,Dege Xian,5133,Garze Zizhizhou,Sichuan,Kangon_Lex_20120621,32.13334,98.85,513330210,167,rdzoagas chean dgaon,513330210,167,rdzoagas chean dgaon,,Derge,G1539,sde dge rdzong,G16,,rdzogs chen dgon,,na,竹庆寺,,zhu qing si,1685,rnying ma/,3.812937296,3.813,,,,,,,,,,,,,,,,
0101000020E6100000A3703D0AD7635940BDA94885B13D4240,599,2084,,塔尔寺,ta-er si,鲁沙尔镇,Lushaer zhen,Lu Sha Er Zhen,630122,湟中县,Huangzhong Xian,6301,Xining Shi,Qinghai,Qinghai_Lex_20120621,36.48198,101.56,630122100,100,sku ' bum byams pa gling,630122100,273,sku ' bum byams pa gling,,na,G2350,sku 'bum rdzong,G160,,,,,塔尔寺,塔儿寺/衮本贤巴林,ta-er si,1560,g,43.64906155,43.649,,,,,,,,,,,,,,,,
0101000020E61000000B98C0ADBB2B5940D39FFD4811D13E40,279,471,,,mai ke si,拉日马乡,Larima xiang,La Ri Ma Xiang,513329,新龙县,Xinlong Xian,5133,Garze Zizhizhou,Sichuan,Kangon_Lex_20120621,30.81667,100.68333,513329206,210,rme khoag dagon,513329206,210,rme khoag dagon,rme khog dgon,Xinlong,G1246,nyag rong rdzong,G1601,rnying ma or bon?,,,na,麦科寺,,mai ke si,750,bon po/,3.733467738,3.733,,,,,,,,,,,,,,,,
0101000020E6100000CDCCCCCCCC0C59403A0664AF77F73E40,281,491,,,wa qiu si,雄龙西乡,Xionglongxi xiang,Xiong Long Xi Xiang,513329,新龙县,Xinlong Xian,5133,Garze Zizhizhou,Sichuan,Kangon_Lex_20120621,30.96667,100.2,513329212,234,dpal khyung dgon,513329212,234,dpal khyung dgon/,,Xinlong,G1246,nyag rong rdzong,G1602,,,,na,瓦秋寺,,wa qiu si,1425,bon po/,14.48121063,14.481,,,,,Early 15th c. (15????).,,,,,,,,,,,
0101000020E6100000F5673F52441459403A0664AF77F73E40,2477,446,,,zhu gong si,茹龙镇,Rulong zhen,Ru Long Zhen,513329,新龙县,Xinlong Xian,5133,Garze Zizhizhou,Sichuan,Kangon_Lex_20120621,30.96667,100.31667,513329100,201,bruag khang dagon,513329100,201,bruag khang dagon,,na,G1246,nyag rong rdzong,G1603,,nyag rong 'brog khang dgon,,na,竹公寺,,zhu gong si,1275,rnying ma/,8.500716489,77.165,,,,,,,,,,,,,,,,
0101000020E6100000F5673F5244145940FFFFFFFFFFFF3E40,2478,447,,,jia zi jue mu si,茹龙镇,Rulong zhen,Ru Long Zhen,513329,新龙县,Xinlong Xian,5133,Garze Zizhizhou,Sichuan,Kangon_Lex_20120621,31,100.31667,513329100,219,ja bzi jo mo dgon,513329100,219,ja bzi jo mo dgon/,,Xinlong,G1246,nyag rong rdzong,G1604,,,,na,甲孜觉母寺,,jia zi jue mu si,1866,rnying ma/,77.1654556,77.165,,,,,,,,,,,,,,,,
0101000020E61000000B98C0ADBB2B5940D39FFD4811D13E40,2497,468,,,re le si,拉日马乡,Larima xiang,La Ri Ma Xiang,513329,新龙县,Xinlong Xian,5133,Garze Zizhizhou,Sichuan,Kangon_Lex_20120621,30.81667,100.68333,513329206,207,ra lu smon dgon,513329206,207,ra lu smon dgon/,,Xinlong,G1246,nyag rong rdzong,G1605,,,,na,热乐寺,,re le si,1675,rnying ma/,3.733467738,3.733,,,,,Late 17th c. (17????).,,,,,,,,,,,
0101000020E61000003DCBF3E0EE0E5940D39FFD4811513F40,2490,461,,,zhu deng si,大盖乡,Dagai xiang,Da Gai Xiang,513329,新龙县,Xinlong Xian,5133,Garze Zizhizhou,Sichuan,Kangon_Lex_20120621,31.31667,100.23333,513329202,196,nyag TA+ki+ka drug bstod dgon,513329202,196,nyag TA+ki+ka drug bstod dgon/,,Xinlong,G1246,nyag rong rdzong,G1606,,nyag TAkki drug bstod dgon,,na,珠登寺,,zhu deng si,1175,rnying ma/,8.500716489,8.501,,,,,Late 12th c. (12????).,,,,,,,,,,,
0101000020E61000004963B48EAA0A5940C6F99B5088C83E40,280,476,,,na ka si,博美乡,Bomei xiang,Bo Mei Xiang,513329,新龙县,Xinlong Xian,5133,Garze Zizhizhou,Sichuan,Kangon_Lex_20120621,30.78333,100.16666,513329207,186,la kha dgon,513329207,186,la kha dgon/,,Xinlong,G1246,nyag rong rdzong,G1607,,,,na,纳卡寺,,na ka si,na,bon po/,65.6845266,65.685,,,,,,,,,,,,,,,,
0101000020E61000004963B48EAA0A5940C6F99B5088C83E40,2499,473,,,an an si,博美乡,Bomei xiang,Bo Mei Xiang,513329,新龙县,Xinlong Xian,5133,Garze Zizhizhou,Sichuan,Kangon_Lex_20120621,30.78333,100.16666,513329207,183,sgre bo rnga sgang dgon,513329207,183,sgre bo rnga sgang dgon/,,Xinlong,G1246,nyag rong rdzong,G1608,,,,na,安安寺,,an an si,na,rnying ma/,65.6845266,65.685,,,,,,,,,,,,,,,,
0101000020E6100000F5673F52441459402D6002B7EEEE3E40,276,440,,,yi xi si,茹龙镇,Rulong zhen,Ru Long Zhen,513329,新龙县,Xinlong Xian,5133,Garze Zizhizhou,Sichuan,Kangon_Lex_20120621,30.93333,100.31667,513329100,223,ye shes dgon,513329100,223,ye shes dgon/,,Xinlong,G1246,nyag rong rdzong,G1609,,nyag rong ye shes dgon,,na,益西寺,,yi xi si,834,bon po/,77.1654556,77.165,,,,,,,,,,,,,,,,
0101000020E6100000B71E85EB517859404AEF1B5F7B124240,1580,2265,,夏琼寺,xiaqiong si,牙什尕乡,Yashenga xiang,Ya Shen Ga Xiang,632127,化隆回族自治县,Hualong Hui Zizhixian,6321,Haidong Diqu,Qinghai,Qinghai_Lex_20120621,36.14439,101.88,632127200,34,bya khyung dgon theg chen yon tan dar rgyas gling,632127200,158,bya khyung dgon theg chen yon tan dar rgyas gling,,na,G1PD96109,ba yan rdzong,G161,,bya khyung dgon,,Jakhyung,夏琼寺,夏群寺/夏冲寺/沙冲寺,xiaqiong si,1349,Kadampa,29.09514111,29.095,1599,g,,,,,,,,,,,,,,
0101000020E6100000CDCCCCCCCC0C59403A0664AF77F73E40,282,492,,,zha yi si,雄龙西乡,Xionglongxi xiang,Xiong Long Xi Xiang,513329,新龙县,Xinlong Xian,5133,Garze Zizhizhou,Sichuan,Kangon_Lex_20120621,30.96667,100.2,513329212,235,brag dben dgon,513329212,235,brag dben dgon/,,Xinlong,G1246,nyag rong rdzong,G1610,,,,na,扎益寺,,zha yi si,1225,bon po/,14.48121063,14.481,,,,,Early 13th c. (13????).,,,,,,,,,,,
0101000020E6100000B79C4B7155155940FFFFFFFFFFFF3E40,277,449,,,gong jia si,茹龙镇,Rulong zhen,Ru Long Zhen,513329,新龙县,Xinlong Xian,5133,Garze Zizhizhou,Sichuan,Kangon_Lex_20120621,31,100.33334,513329100,227,gong rgyal dgon,513329100,227,gong rgyal dgon/,,Xinlong,G1246,nyag rong rdzong,G1611,,,,na,贡加寺,,gong jia si,1769,bon po/,77.1654556,77.165,,,,,,,,,,,,,,,,
0101000020E610000033333333331359402C6002B7EE2E3F40,2486,457,,,ni ji si,乐安乡,Lean xiang,Le An Xiang,513329,新龙县,Xinlong Xian,5133,Garze Zizhizhou,Sichuan,Kangon_Lex_20120621,31.18333,100.3,513329201,181,byuang khuangas dagon,513329201,178,byams 'byor dgon/,,Xinlong,G1246,nyag rong rdzong,G1612,,nyag rong byams 'byor dgon,,na,姜觉寺,将觉寺,jiang jue si,841,rnying ma/,10.06684384,10.067,,,,,,xx,,,,,,,,,,
0101000020E6100000F5673F52441459402D6002B7EEEE3E40,2473,438,,,a ga si,茹龙镇,Rulong zhen,Ru Long Zhen,513329,新龙县,Xinlong Xian,5133,Garze Zizhizhou,Sichuan,Kangon_Lex_20120621,30.93333,100.31667,513329100,221,a dkar dgon,513329100,199,brog khang dgon/,,Xinlong,G1246,nyag rong rdzong,G1613,,,,na,朱贡寺,,zhu gong si,1275,rnying ma/,77.1654556,77.165,,,,,Late 12th c. (12????).,xx,,,,,,,,,,
0101000020E61000004963B48EAA0A5940C6F99B5088C83E40,2500,474,,,ru ji si,博美乡,Bomei xiang,Bo Mei Xiang,513329,新龙县,Xinlong Xian,5133,Garze Zizhizhou,Sichuan,Kangon_Lex_20120621,30.78333,100.16666,513329207,184,rab rgyas dgon,513329207,184,rab rgyas dgon/,,Xinlong,G1246,nyag rong rdzong,G1614,,nyag rong rab rgyas dgon,,na,如几寺,,ru ji si,1292,rnying ma/,65.6845266,65.685,,,,,,,,,,,,,,,,
0101000020E6100000CDCCCCCCCC0C59403A0664AF77F73E40,2506,489,,,gong jue si,雄龙西乡,Xionglongxi xiang,Xiong Long Xi Xiang,513329,新龙县,Xinlong Xian,5133,Garze Zizhizhou,Sichuan,Kangon_Lex_20120621,30.96667,100.2,513329212,232,go 'byams dgon,513329212,232,go 'byams dgon/,,Xinlong,G1246,nyag rong rdzong,G1616,,,,na,贡觉寺,,gong jue si,1159,rnying ma/,14.48121063,14.481,,,,,,,,,,,,,,,,
0101000020E6100000F5673F5244245940F92CCF83BB7B3E40,2683,481,,,a wu si,孜拖西乡,Zituoxi xiang,Zi Tuo Xi Xiang,513329,新龙县,Xinlong Xian,5133,Garze Zizhizhou,Sichuan,Kangon_Lex_20120621,30.48333,100.56667,513329209,203,a bu thang dagon,513329209,203,a bu thang dagon,a bu thang dgon,Xinlong,G1246,nyag rong rdzong,G1617,,,,na,阿乌陀寺,,a wu si,na,sa skya/,7.135619586,7.136,,,,,,,,,,,,,,,,
0101000020E6100000DF37BEF6CC9E59403F355EBA49984140,1112,2041,,,Lapubang Si,拉卜楞镇,Labuleng zhen,La Bu Leng Zhen,623027,夏河县,Xiahe Xian,6230,Gannan Zizhizhou,Gansu,Gannan_Lex_20120621,35.18975,102.48126,623027100,623027123,dga' ldan bshad sgrub dar rgyas bkra shis gyas su 'khyil b'i gling,623027100,623027123,dga' ldan bshad sgrub dar rgyas bkra shis gyas su 'khyil b'i gling,,bsang chu,G2396,bsang chu rdzong,G162,,bla brang bkra shis 'khyil,,,拉卜楞寺,labuleng si,Lapubang Si,1709,Gelug,8.501594049,8.502,,,,,,,,,,,,,,,,
0101000020E6100000F5673F5244245940F92CCF83BB7B3E40,2684,482,,,ba cai si,孜拖西乡,Zituoxi xiang,Zi Tuo Xi Xiang,513329,新龙县,Xinlong Xian,5133,Garze Zizhizhou,Sichuan,Kangon_Lex_20120621,30.48333,100.56667,513329209,204,rw lo dagon,513329209,204,rw lo dagon,,na,G1246,nyag rong rdzong,G1620,,rwa lo dgon,,na,？？,,ba cai si,1750,sa skya/,10.34652914,7.136,na,Sakya,,,,,,,,,,,,,,
0101000020E6100000F5673F5244145940D39FFD4811913E40,2504,485,,,ge ri si,和平乡,Heping xiang,He Ping Xiang,513329,新龙县,Xinlong Xian,5133,Garze Zizhizhou,Sichuan,Kangon_Lex_20120621,30.56667,100.31667,513329210,191,ge rong dgon,513329210,191,ge rong dgon/,,Xinlong,G1246,nyag rong rdzong,G1621,,,,na,格日寺,,ge ri si,1875,rnying ma/,10.20130577,10.201,,,,,Late 19th c. (19????).,,,,,,,,,,,
0101000020E6100000F5673F52441459402D6002B7EEEE3E40,2680,441,,,ge sang si,茹龙镇,Rulong zhen,Ru Long Zhen,513329,新龙县,Xinlong Xian,5133,Garze Zizhizhou,Sichuan,Kangon_Lex_20120621,30.93333,100.31667,513329100,237,dgon sar dgon,513329100,237,dgon sar dgon/,,Xinlong,G1246,nyag rong rdzong,G1622,,nyag rong dgon sar dgon,,na,格桑寺,,ge sang si,1275,sa skya/,77.1654556,77.165,,,,,Late 13th c. (13????).,,,,,,,,,,,
0101000020E6100000F5673F5244145940D39FFD4811913E40,2687,486,,,jia xi si,和平乡,Heping xiang,He Ping Xiang,513329,新龙县,Xinlong Xian,5133,Garze Zizhizhou,Sichuan,Kangon_Lex_20120621,30.56667,100.31667,513329210,192,rgya shod dgon,513329210,192,rgya shod dgon/,,Xinlong,G1246,nyag rong rdzong,G1624,,,,na,甲西寺,,jia xi si,1350,sa skya/,10.20130577,10.201,,,,,13th c. (13??),,,,,,,,,,,
0101000020E61000004963B48EAA0A594007D3307C44C43E40,114,472,,,cuo ka si,博美乡,Bomei xiang,Bo Mei Xiang,513329,新龙县,Xinlong Xian,5133,Garze Zizhizhou,Sichuan,Kangon_Lex_20120621,30.76667,100.16666,513329207,236,mtsho kh dagon,513329207,236,mtsho kh dagon,,Xinlong,G1246,nyag rong rdzong,G1626,,nyag rong mtsho kha dgon,,na,措卡寺,,cuo ka si,1300,bka' brgyud/,65.6845266,65.685,,,,,,,,,,,,,,,,
0101000020E6100000CDCCCCCCCC0C59403A0664AF77F73E40,2507,490,,,ga rong si,雄龙西乡,Xionglongxi xiang,Xiong Long Xi Xiang,513329,新龙县,Xinlong Xian,5133,Garze Zizhizhou,Sichuan,Kangon_Lex_20120621,30.96667,100.2,513329212,233,bskal bzang chos gling dgon,513329212,233,bskal bzang chos gling dgon/,,Xinlong,G1246,nyag rong rdzong,G1629,,,,na,嘎绒寺,,ga rong si,na,rnying ma/,14.48121063,14.481,,,,,,,,,,,,,,,,
0101000020E6100000713D0AD7A3805940E17A14AE47C14140,2820,2403,,隆务寺,longwu si,隆务镇,Longwu zhen,Long Wu Zhen,632321,同仁县,Tongren Xian,6323,Huangnan Zizhizhou,Qinghai,Qinghai_Lex_20120621,35.51,102.01,632321100,25,rong bo dgon bde chen chos 'khor gling,632321100,565,rong bo dgon bde chen chos 'khor gling,,na,G984,reb gong rdzong,G163,,rong po dgon chen thos bsam rnam rgyal gling,,Rongwo,隆务寺,隆务大乐法轮洲,longwu si,1301,Sakya,18.125793,18.126,1630,g,,,,,,,,,,,,,,
0101000020E6100000289B7285770759403A0664AF77773F40,2483,453,,,ya wo si,沙堆乡,Shadui xiang,Sha Dui Xiang,513329,新龙县,Xinlong Xian,5133,Garze Zizhizhou,Sichuan,Kangon_Lex_20120621,31.46667,100.11667,513329200,217,yang daben dagon,513329200,217,yang daben dagon,,Xinlong,G1246,nyag rong rdzong,G1630,,yang dben dgon,,na,牙窝寺,,ya wo si,na,rnying ma/,5.306376938,5.306,,,,,,,,,,,,,,,,
0101000020E6100000F5673F5244145940D39FFD4811913E40,2688,487,,,ma xi si,和平乡,Heping xiang,He Ping Xiang,513329,新龙县,Xinlong Xian,5133,Garze Zizhizhou,Sichuan,Kangon_Lex_20120621,30.56667,100.31667,513329210,193,ba' shod dgon,513329210,193,ba' shod dgon/,,Xinlong,G1246,nyag rong rdzong,G1631,,,,na,麻西寺,,ma xi si,1825,sa skya/,10.20130577,10.201,,,,,Early 19th c. (19????).,,,,,,,,,,,
0101000020E61000004963B48EAA0A5940C6F99B5088C83E40,2501,477,,,an an si,博美乡,Bomei xiang,Bo Mei Xiang,513329,新龙县,Xinlong Xian,5133,Garze Zizhizhou,Sichuan,Kangon_Lex_20120621,30.78333,100.16666,513329207,187,rng rkang dagon,513329207,187,rng rkang dagon,,Xinlong,G1246,nyag rong rdzong,G1633,25 km from the county,rnga rkang dgon ?,,na,安安寺,,an an si,na,rnying ma/,65.6845266,65.685,,,,,,,,,,,,,,,,
0101000020E61000006566666666F658409A99999999D93E40,2513,498,,,cuo pu si,友谊乡,Youyi xiang,You Yi Xiang,513329,新龙县,Xinlong Xian,5133,Garze Zizhizhou,Sichuan,Kangon_Lex_20120621,30.85,99.85,513329215,190,mtsho phu dgon,513329215,190,mtsho phu dgon/,,Xinlong,G1246,nyag rong rdzong,G1634,,,,na,措普寺,,cuo pu si,1750,rnying ma/,3.648702886,3.649,,,,,18th c. (18??),,,,,,,,,,,
0101000020E610000071FE261422025940C6F99B5088C83E40,2514,499,,,e pu si,皮擦乡,Pica xiang,Pi Ca Xiang,513329,新龙县,Xinlong Xian,5133,Garze Zizhizhou,Sichuan,Kangon_Lex_20120621,30.78333,100.03333,513329216,224,od phung dgon,513329216,224,od phung dgon/,,Xinlong,G1246,nyag rong rdzong,G1635,,,,na,俄普寺,,e pu si,na,rnying ma/,3.641660597,3.642,,,,,,,,,,,,,,,,
0101000020E61000003233333333835940CDCCCCCCCC6C4240,736,2247,,却藏寺,quezang si,东沟乡,Donggou xiang,Dong Gou Xiang,632126,互助土族自治县,Huzhu Tu Zizhixian,6321,Haidong Diqu,Qinghai,Qinghai_Lex_20120621,36.85,102.05,632126210,155,chu bzang dgon dga' ldan mi 'gyur gling ngam thub bstan rab rgyas gling,632126210,141,chu bzang dgon dga' ldan mi 'gyur gling ngam thub bstan rab rgyas gling,,na,G1PD96101,dgon lung rdzong,G164,,chu bzang dgon (a mdo),,,却藏寺,,quezang si,1649,g,52.32177894,52.322,,,,,,,,,,,,,,,,
0101000020E61000008E01D9EBDDCD58402D6002B7EEEE3F40,2521,526,,,yao se si,马尼干戈乡,Manigange xiang,Ma Ni Gan Ge Xiang,513330,德格县,Dege Xian,5133,Garze Zizhizhou,Sichuan,Kangon_Lex_20120621,31.93333,99.21667,513330212,175,gayg ze dagon,513330212,175,gayg ze dagon,,Derge,G1539,sde dge rdzong,G1641,,g.yag ze dgon,,na,腰色寺,,yao se si,1687,rnying ma/,5.503880236,5.504,,,,,,,,,,,,,,,,
0101000020E6100000C1340C1F11D158407D96E7C1DD1D4040,119,541,,,ma gen si,温拖乡,Wentuo xiang,Wen Tuo Xiang,513330,德格县,Dege Xian,5133,Garze Zizhizhou,Sichuan,Kangon_Lex_20120621,32.23333,99.26667,513330218,158,m dagon dagon,513330218,158,m dagon dagon,,Derge,G1539,sde dge rdzong,G1643,,ma mgon dgon,,na,麻根寺,,ma gen si,na,bka' brgyud/,10.74575543,10.746,,,,,,,,,,,,,,,,
0101000020E610000072FE261422B258406566666666A63F40,116,506,,,ba bang si,八邦乡,Babang xiang,Ba Bang Xiang,513330,德格县,Dege Xian,5133,Garze Zizhizhou,Sichuan,Kangon_Lex_20120621,31.65,98.78333,513330203,133,dpal spuangas dgon,513330203,133,dpal spuangas dgon,,Derge,G1539,sde dge rdzong,G1644,,dpal spungs chos 'khor gling,,na,八帮寺,八蚌寺,ba bang si,1200,bka' brgyud/,8.262869419,8.263,,,,,,,,,,,,,,,,
0101000020E6100000C1340C1F11D158407D96E7C1DD1D4040,120,542,,,ren gu si,温拖乡,Wentuo xiang,Wen Tuo Xiang,513330,德格县,Dege Xian,5133,Garze Zizhizhou,Sichuan,Kangon_Lex_20120621,32.23333,99.26667,513330218,159,ri mgual dagon,513330218,159,ri mgual dagon,,Derge,G1539,sde dge rdzong,G1645,,rdza ri mguldgon,,na,仁古寺,,ren gu si,1475,bka' brgyud/,10.74575543,10.746,,,,,,,,,,,,,,,,
0101000020E61000004963B48EAAAA58403A0664AF77F73F40,2697,514,,,men zha si,柯洛洞乡,Keluodong xiang,Ke Luo Dong Xiang,513330,德格县,Dege Xian,5133,Garze Zizhizhou,Sichuan,Kangon_Lex_20120621,31.96667,98.66666,513330207,146,mndl dagon,513330207,146,mndl dagon,,Derge,G1539,sde dge rdzong,G1646,,maN+Dal dgon,,na,门查寺,pinyin: men cha si?,men zha si,1600,sa skya/,4.620645042,4.621,,,,,,,,,,,,,,,,
0101000020E6100000289B7285779758404963B48EAA2A4040,118,522,,,jia xiu si,俄南乡,Enan xiang,E Nan Xiang,513330,德格县,Dege Xian,5133,Garze Zizhizhou,Sichuan,Kangon_Lex_20120621,32.33333,98.36667,513330209,131,ja chu dagon,513330209,131,ja chu dagon,,Derge,G1539,sde dge rdzong,G1647,,ja chu dgon,,na,甲曲寺,(jia qu si ?),jia xiu si,1475,bka' brgyud/,8.2822594,8.282,,,,,,,,,,,,,,,,
0101000020E6100000CDCCCCCCCCDC58401630815B77174040,2524,536,,,ran gu si,上然姑乡,Shangrangu xiang,Shang Ran Gu Xiang,513330,德格县,Dege Xian,5133,Garze Zizhizhou,Sichuan,Kangon_Lex_20120621,32.18333,99.45,513330216,163,r skoar dagon,513330216,163,r skoar dagon,,Derge,G1539,sde dge rdzong,G1648,,ra skor dgon,,na,然姑寺,,ran gu si,na,rnying ma/,6.516356054,6.516,,,,,,,,,,,,,,,,
0101000020E61000006666666666D65840B79C4B7155154040,289,545,,,se cuo si,年古乡,Niangu xiang,Nian Gu Xiang,513330,德格县,Dege Xian,5133,Garze Zizhizhou,Sichuan,Kangon_Lex_20120621,32.16667,99.35,513330219,138,zer 'phro dgon,513330219,138,zer 'phro dgon/,,Derge,G1539,sde dge rdzong,G1649,,,,na,色措寺,,se cuo si,1100,bon po/,13.99776036,13.998,,,,,,,,,,,,,,,,
0101000020E61000008FC2F5285C8B594066A032FE7D5E4240,732,2235,,佑宁寺,youning si,松多藏族乡,Songduocangzu xiang,Song Duo Cang Zu Xiang,632126,互助土族自治县,Huzhu Tu Zizhixian,6321,Haidong Diqu,Qinghai,Qinghai_Lex_20120621,36.73822,102.1775,632126206,103,dgon lung byams pa gling,632126206,127,dgon lung byams pa gling,,na,G1PD96101,dgon lung rdzong,G165,,,,,佑宁寺,,youning si,1584,g,47.27573573,47.276,1604,geluk,,,,,,,,,,,,,,
0101000020E6100000CDCCCCCCCC9C58409A99999999D93F40,2517,511,,,lang zhong si,汪布顶乡,Wangbuding xiang,Wang Bu Ding Xiang,513330,德格县,Dege Xian,5133,Garze Zizhizhou,Sichuan,Kangon_Lex_20120621,31.85,98.45,513330206,149,lh 'brang dagon,513330206,149,lh 'brang dagon,,Derge,G1539,sde dge rdzong,G1650,,lha 'brang dgon,,na,拉仲寺,(la zhong si ?),lang zhong si,1650,rnying ma/,18.73594804,18.736,,,,,,,,,,,,,,,,
0101000020E61000004963B48EAAAA58403A0664AF77F73F40,2698,515,,,ke duo si,柯洛洞乡,Keluodong xiang,Ke Luo Dong Xiang,513330,德格县,Dege Xian,5133,Garze Zizhizhou,Sichuan,Kangon_Lex_20120621,31.96667,98.66666,513330207,147,khoar mdo dagon,513330207,147,khoar mdo dagon,,Derge,G1539,sde dge rdzong,G1651,,khor mdo dgon,,na,柯多寺,,ke duo si,1275,sa skya/,4.620645042,4.621,,,,,,,,,,,,,,,,
0101000020E6100000CDCCCCCCCC9C58409A99999999D93F40,2695,512,,,wang dui si,汪布顶乡,Wangbuding xiang,Wang Bu Ding Xiang,513330,德格县,Dege Xian,5133,Garze Zizhizhou,Sichuan,Kangon_Lex_20120621,31.85,98.45,513330206,150,dabon stoan dagaon,513330206,150,dabon stoan dagaon,,Derge,G1539,sde dge rdzong,G1652,,dbon stod dgon,,na,汪堆寺,,wang dui si,1275,sa skya/,18.73594804,18.736,,,,,,,,,,,,,,,,
0101000020E61000006666666666A6584092C6681D55D53F40,2689,500,,,zha ma si,更庆镇,Gengqing zhen,Geng Qing Zhen,513330,德格县,Dege Xian,5133,Garze Zizhizhou,Sichuan,Kangon_Lex_20120621,31.83333,98.6,513330100,135,drw m dagon,513330100,135,drw m dagon,,Derge,G1539,sde dge rdzong,G1653,,drwa ma dgon,,na,扎马寺,,zha ma si,1625,sa skya/,9.375585974,9.376,,,,,A village under Gengqing (Gonchen) Xiang; the seat of Derge County,,,,,,,,,,,
0101000020E6100000B79C4B7155A558403333333333B33F40,117,508,,,ba jue si,龚垭乡,Gongya xiang,Gong Ya Xiang,513330,德格县,Dege Xian,5133,Garze Zizhizhou,Sichuan,Kangon_Lex_20120621,31.7,98.58334,513330204,169,dpal 'byor dgon,513330204,169,dpal 'byor dgon/,,Derge,G1539,sde dge rdzong,G1654,,sde dge dpal 'byor dgon,,na,班觉寺,ban jue si ?,ba jue si,na,bka' brgyud/,16.52073352,16.521,,,,,,,,,,,,,,,,
0101000020E61000009A999999999958404963B48EAA0A4040,2700,517,,,kang duo si,卡松渡乡,Kasongdu xiang,Ka Song Du Xiang,513330,德格县,Dege Xian,5133,Garze Zizhizhou,Sichuan,Kangon_Lex_20120621,32.08333,98.4,513330208,136,mkhar mdo dagon,513330208,136,mkhar mdo dagon,,Derge,G1539,sde dge rdzong,G1655,,mkhar mdo dgon,,na,康多寺,,kang duo si,na,sa skya/,3.387419125,3.387,,,,,,,,,,,,,,,,
0101000020E61000004963B48EAAAA58403A0664AF77F73F40,2699,516,,,ga lun si,柯洛洞乡,Keluodong xiang,Ke Luo Dong Xiang,513330,德格县,Dege Xian,5133,Garze Zizhizhou,Sichuan,Kangon_Lex_20120621,31.96667,98.66666,513330207,148,sg lean dagon,513330207,148,sg lean dagon,,Derge,G1539,sde dge rdzong,G1656,,sga len dgon,,na,嘎伦寺,,ga lun si,1006,sa skya/,4.620645042,4.621,,,,,,,,,,,,,,,,
0101000020E61000006666666666A6584092C6681D55D53F40,2690,501,,,de ge yin jing yuan,更庆镇,Gengqing zhen,Geng Qing Zhen,513330,德格县,Dege Xian,5133,Garze Zizhizhou,Sichuan,Kangon_Lex_20120621,31.83333,98.6,513330100,144,sde dge par khang,513330100,144,sde dge par khang /,,Derge,G1539,sde dge rdzong,G1657,,,,na,德格印经院,,de ge yin jing yuan,na,sa skya/,9.375585974,9.376,,,,,,,,,,,,,,,,
0101000020E6100000D8648D7A889858408369183E22224040,284,518,,,ta de si,俄南乡,Enan xiang,E Nan Xiang,513330,德格县,Dege Xian,5133,Garze Zizhizhou,Sichuan,Kangon_Lex_20120621,32.26667,98.38333,513330209,127,thar bde dgon,513330209,127,thar bde dgon/,,Derge,G1539,sde dge rdzong,G1658,,,,na,塔德寺,,ta de si,na,bon po/,8.2822594,8.282,,,,,,,,,,,,,,,,
0101000020E6100000C1340C1F11D158407D96E7C1DD1D4040,121,544,,,dao pi si,温拖乡,Wentuo xiang,Wen Tuo Xiang,513330,德格县,Dege Xian,5133,Garze Zizhizhou,Sichuan,Kangon_Lex_20120621,32.23333,99.26667,513330218,161,bstan 'pheal dagon,513330218,161,bstan 'pheal dagon,,Derge,G1539,sde dge rdzong,G1660,,bstan 'phel dgon (sde dge rdzong),,na,刀批寺,,dao pi si,na,bka' brgyud/,10.74575543,10.746,,,,,,,,,,,,,,,,
0101000020E61000000000000000C05840609335EA21A23F40,283,504,,,ri ban si,达马乡,Dama xiang,Da Ma Xiang,513330,德格县,Dege Xian,5133,Garze Zizhizhou,Sichuan,Kangon_Lex_20120621,31.63333,99,513330200,137,ri spuan dagon,513330200,137,ri spuan dagon,,Derge,G1539,sde dge rdzong,G1661,,ri spun dgon,,na,日班寺,,ri ban si,1867,bon po/,10.20981163,10.21,,,,,,,,,,,,,,,,
0101000020E61000006666666666D65840B79C4B7155154040,290,548,,,mu mai si,年古乡,Niangu xiang,Nian Gu Xiang,513330,德格县,Dege Xian,5133,Garze Zizhizhou,Sichuan,Kangon_Lex_20120621,32.16667,99.35,513330219,141,buam smad dagon,513330219,141,buam smad dagon,,Derge,G1539,sde dge rdzong,G1662,,rdza 'bum smad dgon,,na,牟买寺,,mu mai si,1094,bon po/,13.99776036,13.998,,,,,,,,,,,,,,,,
0101000020E6100000D8648D7A889858408369183E22224040,285,519,,,rong jia si,俄南乡,Enan xiang,E Nan Xiang,513330,德格县,Dege Xian,5133,Garze Zizhizhou,Sichuan,Kangon_Lex_20120621,32.26667,98.38333,513330209,128,rab rgyas dagon,513330209,128,rab rgyas dagon,,Derge,G1539,sde dge rdzong,G1663,,rab rgyal dgon,,na,绒加寺,,rong jia si,na,bon po/,8.2822594,8.282,,,,,,,,,,,,,,,,
0101000020E61000006666666666D65840B79C4B7155154040,383,546,,,nian gu si,年古乡,Niangu xiang,Nian Gu Xiang,513330,德格县,Dege Xian,5133,Garze Zizhizhou,Sichuan,Kangon_Lex_20120621,32.16667,99.35,513330219,139,ny'ge dagon,513330219,139,ny'ge dagon,,Derge,G1539,sde dge rdzong,G1664,,nyaH 'ge dgon,,na,年古寺,,nian gu si,1600,dge lugs/,13.99776036,13.998,,,,,,,,,,,,,,,,
0101000020E61000000B98C0ADBBBB58406566666666264040,291,551,,,cuo chong si,浪多乡,Langduo xiang,Lang Duo Xiang,513330,德格县,Dege Xian,5133,Garze Zizhizhou,Sichuan,Kangon_Lex_20120621,32.3,98.93333,513330220,154,khro tshang dagpn,513330220,154,khro tshang dagpn,,Derge,G1539,sde dge rdzong,G1665,,khro tshang dgon,,na,措通寺,cuo tong si ?,cuo chong si,950,bon po/,5.488474204,5.488,,,,,,,,,,,,,,,,
0101000020E61000003ECBF3E0EEDE58400000000000004040,286,530,,,deng qing si,中扎科乡,Zhongzhake xiang,Zhong Zha Ke Xiang,513330,德格县,Dege Xian,5133,Garze Zizhizhou,Sichuan,Kangon_Lex_20120621,32,99.48333,513330215,121,steang chean dagon,513330215,121,steang chean dagon,,Derge,G1539,sde dge rdzong,G1666,,rdza steng chen dgon,,na,登青寺,,deng qing si,1061,bon po/,20.74545329,20.745,,,,,"Date from Narita Bonpo Survey, Kanze volumes give c. 450",,,,,,,,,,,
0101000020E61000006666666666D65840B79C4B7155154040,2707,547,,,rong da si,年古乡,Niangu xiang,Nian Gu Xiang,513330,德格县,Dege Xian,5133,Garze Zizhizhou,Sichuan,Kangon_Lex_20120621,32.16667,99.35,513330219,140,bzang zl dagon,513330219,140,bzang zl dagon,,Derge,G1539,sde dge rdzong,G1668,,bzang zla dgon,,na,绒达寺,,rong da si,1874,sa skya/,13.99776036,13.998,,,,,,,,,,,,,,,,
0101000020E61000003ECBF3E0EEDE58400000000000004040,287,534,,,ji zha ri wa,中扎科乡,Zhongzhake xiang,Zhong Zha Ke Xiang,513330,德格县,Dege Xian,5133,Garze Zizhizhou,Sichuan,Kangon_Lex_20120621,32,99.48333,513330215,125,shar rdz ri khroad,513330215,125,shar rdz ri khroad,,Derge,G1539,sde dge rdzong,G1669,,shar rdza ri khrod,,na,基扎作寺,,ji zha ri wa,na,bon po/,20.74545329,20.745,,,,,,,,,,,,,,,,
0101000020E61000004963B48EAACA5940E3FC4D2844A44240,2921,1914,,,xiama si,西大滩乡,Xidatan xiang,Xi Da Tan Xiang,622326,天祝藏族自治县,Tianzu Tibetan Zizhixian,6223,Wuwei Diqu,Gansu,Tianzhu_Lex_20120622,37.28333,103.16666,622326211,11,zhwa dmar dgon bkra shis chos gling,622326211,11,zhwa dmar dgon bkra shis chos gling,,Tianzhu,G1052,dpa' ris rdzong,G167,,,,,夏玛寺,南冲寺,xiama si,1644,,3.8531191,3.853,,,,,end Ming early Qing,,,,,,,,,,,
0101000020E61000003ECBF3E0EEDE58400000000000004040,380,529,,,beng dong si,中扎科乡,Zhongzhake xiang,Zhong Zha Ke Xiang,513330,德格县,Dege Xian,5133,Garze Zizhizhou,Sichuan,Kangon_Lex_20120621,32,99.48333,513330215,120,spang thang dagon,513330215,120,spang thang dagon,,Derge,G1539,sde dge rdzong,G1671,,rdza spang thang dgon,,na,崩东寺,,beng dong si,1864,dge lugs/,20.74545329,20.745,,,,,,,,,,,,,,,,
0101000020E61000003ECBF3E0EEDE58400000000000004040,381,531,,,geng sha si,中扎科乡,Zhongzhake xiang,Zhong Zha Ke Xiang,513330,德格县,Dege Xian,5133,Garze Zizhizhou,Sichuan,Kangon_Lex_20120621,32,99.48333,513330215,122,dagongsar dgaon,513330215,122,dagongsar dgaon,,Derge,G1539,sde dge rdzong,G1672,,sde dge dgon gsar dgon,,na,更沙寺,,geng sha si,1600,dge lugs/,20.74545329,20.745,,,,,,,,,,,,,,,,
0101000020E61000000B98C0ADBBBB58406566666666264040,2527,552,,,le gan si,浪多乡,Langduo xiang,Lang Duo Xiang,513330,德格县,Dege Xian,5133,Garze Zizhizhou,Sichuan,Kangon_Lex_20120621,32.3,98.93333,513330220,155,leagas rgan dagon,513330220,155,leagas rgan dagon,,Derge,G1539,sde dge rdzong,G1673,,legs rgan dgon,,na,勒干寺,,le gan si,1724,rnying ma/,5.488474204,5.488,,,,,,,,,,,,,,,,
0101000020E610000072FE261422B258406566666666A63F40,2515,505,,,duo zha si,八邦乡,Babang xiang,Ba Bang Xiang,513330,德格县,Dege Xian,5133,Garze Zizhizhou,Sichuan,Kangon_Lex_20120621,31.65,98.78333,513330203,132,rdo brag dgon,513330203,132,rdo brag dgon/,,Derge,G1539,sde dge rdzong,G1674,,sde dge rdo brag dgon,,na,多扎寺,,duo zha si,1126,rnying ma/,8.262869419,8.263,,,,,,,,,,,,,,,,
0101000020E6100000B79C4B7155D55840609335EA21E23F40,2522,527,,,zha xi si,玉隆乡,Yulong xiang,Yu Long Xiang,513330,德格县,Dege Xian,5133,Garze Zizhizhou,Sichuan,Kangon_Lex_20120621,31.88333,99.33334,513330213,164,rtsa shul dgon,513330213,164,rtsa shul dgon/,,Derge,G1539,sde dge rdzong,G1676,,,,na,扎西寺,,zha xi si,1775,rnying ma/,3.341910905,3.342,,,,,,,,,,,,,,,,
0101000020E6100000CDCCCCCCCCDC58401630815B77174040,2704,535,,,ma gong si,上然姑乡,Shangrangu xiang,Shang Ran Gu Xiang,513330,德格县,Dege Xian,5133,Garze Zizhizhou,Sichuan,Kangon_Lex_20120621,32.18333,99.45,513330216,162,bar chuang dagon,513330216,162,bar chuang dagon,,Derge,G1539,sde dge rdzong,G1677,,bar chung dgon,,na,麻龚寺,,ma gong si,na,sa skya/,6.516356054,6.516,,,,,Full name is Shangrangu Xiang,,,,,,,,,,,
0101000020E61000008E01D9EBDDCD58402D6002B7EEEE3F40,2702,525,,,la jia si,马尼干戈乡,Manigange xiang,Ma Ni Gan Ge Xiang,513330,德格县,Dege Xian,5133,Garze Zizhizhou,Sichuan,Kangon_Lex_20120621,31.93333,99.21667,513330212,174,lha rgyal dgon,513330212,174,lha rgyal dgon/,,Derge,G1539,sde dge rdzong,G1679,,,,na,拉加寺,,la jia si,1767,sa skya/,5.503880236,5.504,,,,,,,,,,,,,,,,
0101000020E61000003DCBF3E0EEDE59405036E50AEF8E4240,1441,1911,,,dalong si,松山乡,Songshan xiang,Song Shan Xiang,622326,天祝藏族自治县,Tianzu Tibetan Zizhixian,6223,Wuwei Diqu,Gansu,Tianzhu_Lex_20120622,37.11667,103.48333,622326207,5,stag lung dgon dga' ldan dam chos gling,622326207,5,stag lung dgon dga' ldan dam chos gling,,Tianzhu,G1052,dpa' ris rdzong,G168,,zung zhan stag lung dgon dga' ldan dam chos gling,,,达隆寺,,dalong si,1644,Geluk,2.999220203,2.999,,,,,,,,,,,,,,,,
0101000020E6100000289B728577C758408369183E22024040,2525,537,,,jia rong si,窝公乡,Wogong xiang,Wo Gong Xiang,513330,德格县,Dege Xian,5133,Garze Zizhizhou,Sichuan,Kangon_Lex_20120621,32.01667,99.11667,513330217,165,rgyal roang dagon,513330217,165,rgyal roang dagon,,Derge,G1539,sde dge rdzong,G1680,,rgyal rong dgon (sde dge rdzong),,na,加绒寺,,jia rong si,1742,rnying ma/,4.830451164,4.83,,,,,,,,,,,,,,,,
0101000020E6100000CDCCCCCCCC9C58409A99999999D93F40,2696,513,,,yin nan si,汪布顶乡,Wangbuding xiang,Wang Bu Ding Xiang,513330,德格县,Dege Xian,5133,Garze Zizhizhou,Sichuan,Kangon_Lex_20120621,31.85,98.45,513330206,151,ye dagon,513330206,151,ye dagon,,Derge,G1539,sde dge rdzong,G1681,,ye na dgon,,na,银南寺,,yin nan si,na,sa skya/,18.73594804,18.736,,,,,,,,,,,,,,,,
0101000020E61000003ECBF3E0EEBE58403333333333334040,123,553,,,cha cha si,阿须乡,Axu xiang,A Xu Xiang,513330,德格县,Dege Xian,5133,Garze Zizhizhou,Sichuan,Kangon_Lex_20120621,32.4,98.98333,513330221,172,tshar tshar dagon,513330221,172,tshar tshar dagon,,Derge,G1539,sde dge rdzong,G1682,,tshar tshar dgon,,na,岔岔寺,,cha cha si,1575,bka' brgyud/,7.255840952,7.256,,,,,,,,,,,,,,,,
0101000020E6100000289B7285779758404963B48EAA2A4040,2518,521,,,rong ge si,俄南乡,Enan xiang,E Nan Xiang,513330,德格县,Dege Xian,5133,Garze Zizhizhou,Sichuan,Kangon_Lex_20120621,32.33333,98.36667,513330209,130,r skoar dagon,513330209,130,r skoar dagon,,Derge,G1539,sde dge rdzong,G1683,,ra skor dgon,,na,绒戈寺,,rong ge si,na,rnying ma/,8.2822594,8.282,,,,,,,,,,,,,,,,
0101000020E61000003333333333C358401630815B77374040,2528,556,,,ga tuo si,亚丁乡,Yading xiang,Ya Ding Xiang,513330,德格县,Dege Xian,5133,Garze Zizhizhou,Sichuan,Kangon_Lex_20120621,32.43333,99.05,513330223,143,k:thoag dagon,513330223,143,k:thoag dagon,,Derge,G1539,sde dge rdzong,G1684,,rdza kaH thog dgon,,na,呷拖寺,德格呷拖寺,ga tuo si,na,rnying ma/,69.71070059,69.711,,,,,,,,,,,,,,,,
0101000020E6100000C2340C1F11C15840CDCCCCCCCC2C4040,126,557,,,deng pi si,所巴乡,Suoba xiang,Suo Ba Xiang,513330,德格县,Dege Xian,5133,Garze Zizhizhou,Sichuan,Kangon_Lex_20120621,32.35,99.01667,513330224,142,bstan 'pheal dagon,513330224,142,bstan 'pheal dagon,,Derge,G1539,sde dge rdzong,G1685,,bstan 'phel dgon (sde dge rdzong),,na,登批寺,,deng pi si,na,bka' brgyud/,5.21648409,5.216,,,,,,,,,,,,,,,,
0101000020E6100000C1340C1F11D158407D96E7C1DD1D4040,288,540,,,man jin si,温拖乡,Wentuo xiang,Wen Tuo Xiang,513330,德格县,Dege Xian,5133,Garze Zizhizhou,Sichuan,Kangon_Lex_20120621,32.23333,99.26667,513330218,157,smoan rgyal dagon,513330218,157,smoan rgyal dagon,,Derge,G1539,sde dge rdzong,G1686,,rdza smon rgyal dgon,,na,满金寺,,man jin si,na,bon po/,10.74575543,10.746,,,,,,,,,,,,,,,,
0101000020E61000003333333333C358403333333333334040,125,555,,,ben ni si,亚丁乡,Yading xiang,Ya Ding Xiang,513330,德格县,Dege Xian,5133,Garze Zizhizhou,Sichuan,Kangon_Lex_20120621,32.4,99.05,513330223,126,pad snyiang dagon,513330223,126,pad snyiang dagon,,Derge,G1539,sde dge rdzong,G1687,,,,na,白尼寺,bai ni si ?,ben ni si,1600,bka' brgyud/,69.71070059,69.711,,,,,,,,,,,,,,,,
0101000020E61000003ECBF3E0EEBE58403333333333334040,124,554,,,ge sa er jing tang,阿须乡,Axu xiang,A Xu Xiang,513330,德格县,Dege Xian,5133,Garze Zizhizhou,Sichuan,Kangon_Lex_20120621,32.4,98.98333,513330221,173,ge sar lh khang,513330221,173,ge sar lh khang,,Derge,G1539,sde dge rdzong,G1690,,sde dge ge sar lha khang,,na,格萨尔经堂,,ge sa er jing tang,na,bka' brgyud/,7.255840952,7.256,,,,,,,,,,,,,,,,
0101000020E6100000B79C4B7155A558403333333333B33F40,2516,510,,,yan weng si,龚垭乡,Gongya xiang,Gong Ya Xiang,513330,德格县,Dege Xian,5133,Garze Zizhizhou,Sichuan,Kangon_Lex_20120621,31.7,98.58334,513330204,177,e labr dagon,513330204,177,e labr dagon,E ? dgon,Derge,G1539,sde dge rdzong,G1691,??,,,na,严翁寺,,yan weng si,1159,rnying ma/,16.52073352,16.521,,,,,,,,,,,,,,,,
0101000020E61000000B98C0ADBBBB58406566666666264040,2916,550,,,qu ou si,浪多乡,Langduo xiang,Lang Duo Xiang,513330,德格县,Dege Xian,5133,Garze Zizhizhou,Sichuan,Kangon_Lex_20120621,32.3,98.93333,513330220,153,chu ngoags dgoan,,,,,,,,G1692,,,,,,,,,,,,,,,,,,,,,,,,,,,
0101000020E6100000CDCCCCCCCCBC58405F9335EA21623F40,2537,566,,,ga tuo si,河坡乡,Hepo xiang,He Po Xiang,513331,白玉县,Baiyu Xian,5133,Garze Zizhizhou,Sichuan,Kangon_Lex_20120621,31.38333,98.95,513331204,336,k:thoag dagon,513331204,336,k:thoag dagon,,Baiyu,G2300,dpal yul rdzong,G17,,kaH thog,,na,噶陀寺,呷拖寺,ga tuo si,1122,rnying ma/,3.929581892,3.93,,,,,,,,,,,,,,,,
0101000020E61000000000000000A059409A99999999794240,237,1907,,,tiantang si,朱岔乡,Zhucha xiang,Zhu Cha Xiang,622326,天祝藏族自治县,Tianzu Tibetan Zizhixian,6223,Wuwei Diqu,Gansu,Tianzhu_Lex_20120622,36.95,102.5,622326201,1,mchod rten thang bkra shis dar rgyas gling,622326201,1,mchod rten thang bkra shis dar rgyas gling,,Tianzhu,G1052,dpa' ris rdzong,G170,,,,Chorten Tang,天堂寺,,tiantang si,820,Bon,3.523484021,3.523,1360,Kagyu,1639,Geluk,,,,,,,,,,,,
0101000020E61000002254A9D903A359405743E21E4B0B4240,1915,2326,,阿吾具寺,awuju si,金源藏族乡,Jinyuancangzu xiang,Jin Yuan Cang Zu Xiang,632127,化隆回族自治县,Hualong Hui Zizhixian,6321,Haidong Diqu,Qinghai,Qinghai_Lex_20120621,36.08823,102.54711,632127216,230,a u cul zi,632127216,212,a u cul zi,a u cul zi,na,G1PD96109,ba yan rdzong,G1709,,,,,,,awuju si,1730,n,96.75858732,96.759,,,,,,,,,,,,,,,,
0101000020E6100000EEE6A90EB9A95640D218ADA3AA513D40,1606,918,,,Chokhor Yangtse,达嘎乡,Daga xiang,Da Ga Xiang,540124,曲水县,Qushui Xian,5401,Lhasa Shi,Xizang,U_gonpa_Lex_20120622,29.31901,90.65192,540124204,540124111,chos 'khor yang rtse,540124204,540124111,chos 'khor yang rtse,,Chushur,G2128,chu shur rdzong,G1714,,,,Chokhor Yangtse,琼果扬孜寺,,na,1350,Kagyu,8.927774306,8.928,1450,Gelug,x,x,,,,,,,,,,,,
0101000020E6100000CABE2B82FF955940A4703D0AD7834240,739,2251,,甘禅寺,ganchan si,巴扎藏族乡,Bazhacangzu xiang,Ba Zha Cang Zu Xiang,632126,互助土族自治县,Huzhu Tu Zizhixian,6321,Haidong Diqu,Qinghai,Qinghai_Lex_20120621,37.03,102.34372,632126219,143,kan chen dgon theg chen thar pa gling,632126219,133,kan chen dgon theg chen thar pa gling,,na,G1PD96101,dgon lung rdzong,G172,,,,,甘禅寺,,ganchan si,1643,g,7.484749822,7.485,,,,,,,,,,,,,,,,
0101000020E610000052B81E85EB3159403333333333734040,1496,2636,,阿什姜贾贡寺,ashi jiangjia gong si,江日堂乡,Jiangritang xiang,Jiang Ri Tang Xiang,632622,班玛县,Banma Xian,6326,Golog Zizhizhou,Qinghai,Qinghai_Lex_20120621,32.9,100.78,632622206,45,a skyong rgya dgon pa sngags bshad sgrub gling,632622206,510,a skyong rgya dgon pa sngags bshad sgrub gling,,na,G1719,pad+ma rdzong,G1720,,a skyong rgya dgon pa mdo sngags bshad sgrub gling,,Akyongya,阿什姜贾贡寺,江日堂贾贡巴,ashi jiangjia gong si,1367,j,3.31922662,3.319,,,,,,,,,,,,,,,,
0101000020E61000009A999999997958400AD7A3703D8A4140,2033,2683,,措哇尕什则多卡寺,cuowa gashize duoka si,扎陵湖乡,Zhalinghu xiang,Zha Ling Hu Xiang,632626,玛多县,Maduo Xian,6326,Golog Zizhizhou,Qinghai,Qinghai_Lex_20120621,35.08,97.9,632626202,536,mtsho bar dkar rtse'i rdo kha,632626202,478,mtsho bar dkar rtse'i rdo kha,,na,G1755,rma stod rdzong,G1725,,mtsho bar dkar rtse dgon,,,措哇尕什则多卡寺,,cuowa gashize duoka si,1984,n,0.183909061,0.184,,,,,,,,,,,,,,,,
0101000020E6100000703D0AD7A3905840AE47E17A144E4140,2032,2682,,霍科寺,huoke si,黄河乡,Huanghe xiang,Huang He Xiang,632626,玛多县,Maduo Xian,6326,Golog Zizhizhou,Qinghai,Qinghai_Lex_20120621,34.61,98.26,632626200,456,hor skor dgon bshad sgrub dar rgyas gling,632626200,477,hor skor dgon bshad sgrub dar rgyas gling,,na,G1755,rma stod rdzong,G1727,,,,,霍科寺,加科寺,huoke si,1927,n,0.11479791,0.115,,,,,,,,,,,,,,,,
0101000020E6100000F4673F5244A459407D96E7C1DDBD4240,1443,1917,,,hongguo shang si,大红沟乡,Dahonggou xiang,Da Hong Gou Xiang,622326,天祝藏族自治县,Tianzu Tibetan Zizhixian,6223,Wuwei Diqu,Gansu,Tianzhu_Lex_20120622,37.48333,102.56667,622326213,16,rgya yag dgon dge ldan rnam rgyal gling - dgon rnying,622326213,16,rgya yag dgon dge ldan rnam rgyal gling / dgon rnying,,na,G1052,dpa' ris rdzong,G173,,rgya yag dgon,,,红沟上寺,correct pinyin: honggou shang si,hongguo shang si,1730,Geluk,6.815238874,8.16,,,,,,,,,,,,,,,,
0101000020E6100000F4673F5244A459407D96E7C1DDBD4240,2898,1916,,,guangshan si - honggou xia si - jiaya shang si - dafo si,大红沟乡,Dahonggou xiang,Da Hong Gou Xiang,622326,天祝藏族自治县,Tianzu Tibetan Zizhixian,6223,Wuwei Diqu,Gansu,Tianzhu_Lex_20120622,37.48333,102.56667,622326213,15,rgya yag dgon chos 'khor dar rgyas gling dgon shul,622326213,15,rgya yag dgon chos 'khor dar rgyas gling /dgon shul,,Tianzhu,G1052,dpa' ris rdzong,G173,,rgya yag dgon,,Gyayak,红沟下寺,大佛寺,guangshan si / honggou xia si / jiaya shang si/dafo si,1322,unknown,8.160267657,8.16,,,,,"destroyed 1720s during rebellion, rebuilt by Third Tuguan as hongguo shang si",,,,,,,,,,,
0101000020E6100000CDCCCCCCCCCC5840E17A14AE47214140,1989,2623,,多合旦寺,duohe dan si,优云乡,Youyun xiang,You Yun Xiang,632621,玛沁县,Maqin Xian,6326,Golog Zizhizhou,Qinghai,Qinghai_Lex_20120621,34.26,99.2,632621206,435,rtogs ldan dgon mdo sngags bshad sgrub gling,632621206,473,rtogs ldan dgon mdo sngags bshad sgrub gling,,na,G1754,rma chen rdzong,G1730,,,,,多合旦寺,阿什姜女王寺,duohe dan si,1920,n,0.7716883,0.772,,,,,,,,,,,,,,,,
0101000020E6100000713D0AD7A3105940E17A14AE47E14040,952,2651,,夏日乎寺,xiari hu si,岗龙乡,Ganglong xiang,Gang Long Xiang,632623,甘德县,Gande Xian,6326,Golog Zizhizhou,Qinghai,Qinghai_Lex_20120621,33.76,100.26,632623204,439,shar 'od dgon pa,632623204,483,shar 'od dgon pa,,na,G1753,dga' bde rdzong,G1735,,shar 'od dgon mi 'gyur bde chen gling,,,夏日乎寺,,xiari hu si,1922,g,1.873115178,1.873,,,,,,,,,,,,,,,,
0101000020E6100000D7A3703D0A075940CDCCCCCCCCEC4040,1497,2648,,隆什加寺,long shijia si,下贡麻乡,Xiagongma xiang,Xia Gong Ma Xiang,632623,甘德县,Gande Xian,6326,Golog Zizhizhou,Qinghai,Qinghai_Lex_20120621,33.85,100.11,632623201,217,lung skya dgon pa,632623201,485,lung skya dgon pa,,na,G1753,dga' bde rdzong,G1736,,,,,隆什加寺,,long shijia si,1717,j,3.622925875,3.623,,,,,,,,,,,,,,,,
0101000020E61000000AD7A3703DEA5840AE47E17A14EE4040,2010,2647,,隆恩寺,long'en si,上贡麻乡,Shanggongma xiang,Shang Gong Ma Xiang,632623,甘德县,Gande Xian,6326,Golog Zizhizhou,Qinghai,Qinghai_Lex_20120621,33.86,99.66,632623200,525,wa shul bla ma'i chos sgar ram lung sngon dgon thub bstan chos 'khor gling,632623200,486,wa shul bla ma'i chos sgar ram lung sngon dgon thub bstan chos 'khor gling,,na,G1753,dga' bde rdzong,G1737,,lung sngon dgon thub bstan chos 'khor gling,,,隆恩寺,龙恩寺,long'en si,1958,n,1.202747074,1.203,,,,,,,,,,,,,,,,
0101000020E61000003233333333F35840AE47E17A14CE4040,2021,2666,,东群寺,dongqun si,窝赛乡,Wosai xiang,Wo Sai Xiang,632624,达日县,Dari Xian,6326,Golog Zizhizhou,Qinghai,Qinghai_Lex_20120621,33.61,99.8,632624207,486,dung chung dgon pa,632624207,497,dung chung dgon pa,,na,G1752,dar lag rdzong,G1739,,,,,东群寺,周雪寺,dongqun si,1940,n,0.844002937,0.844,,,,,,,,,,,,,,,,
0101000020E61000008C15359886975940D0D556EC2F934240,805,2379,,朱固寺,zhugu si,珠固乡,Zhugu xiang,Zhu Gu Xiang,632221,门源回族自治县,Menyuan Hui Zizhixian,6322,Haibei Diqu,Qinghai,Qinghai_Lex_20120621,37.1499,102.36759,632221212,151,bru gu dgon dga' ldan chos 'khor gling,632221212,538,bru gu dgon dga' ldan chos 'khor gling,,na,G2316,sems nyid rdzong,G174,,bru gu dgon dga' ldan chos 'khor gling,,,朱固寺,,zhugu si,1644,g,2.130016188,2.13,,,,,,,,,,,,,,,,
0101000020E6100000EC51B81E85EB584048E17A14AE674040,2014,2656,,红科寺,hongke si,下红科乡,Xiahongke xiang,Xia Hong Ke Xiang,632624,达日县,Dari Xian,6326,Golog Zizhizhou,Qinghai,Qinghai_Lex_20120621,32.81,99.68,632624202,436,dpon skor dgon pa,632624202,500,dpon skor dgon pa,,na,G1752,dar lag rdzong,G1742,,,,,红科寺,,hongke si,1920,n,4.598123965,4.598,,,,,,,,,,,,,,,,
0101000020E6100000EB51B81E85DB58403C0AD7A370DD4040,953,2661,,年毛寺,nianmao si,建设乡,Jianshe xiang,Jian She Xiang,632624,达日县,Dari Xian,6326,Golog Zizhizhou,Qinghai,Qinghai_Lex_20120621,33.73,99.43,632624205,389,snyan mo dgon pa,632624205,492,snyan mo dgon pa,,na,G1752,dar lag rdzong,G1746,,,,,年毛寺,,nianmao si,1890,g,7.08081571,7.081,,,,,,,,,,,,,,,,
0101000020E6100000A4703D0AD72359403C0AD7A370DD4040,2026,2672,,查洋寺,chayang si,哇赛乡,Wasai xiang,Wa Sai Xiang,632625,久治县,Jiuzhi Xian,6326,Golog Zizhizhou,Qinghai,Qinghai_Lex_20120621,33.73,100.56,632625202,374,tsa yang zi,632625202,537,tsa yang zi,tsa yang zi,na,G1700,gcig sgril rdzong,G1748,,,,,查洋寺,,chayang si,1877,n,27.8551532,1.611,,,,,,,,,,,,,,,,
0101000020E61000004963B48EAA9A59408369183E22C24240,2806,1918,,,maozang si,毛藏乡,Maocang xiang,Mao Cang Xiang,622326,天祝藏族自治县,Tianzu Tibetan Zizhixian,6223,Wuwei Diqu,Gansu,Tianzhu_Lex_20120622,37.51667,102.41666,622326214,12,hor zhug cha'i dgon bshad sgrub dar rgyas gling - hor dgon,622326214,12,hor zhug cha'i dgon bshad sgrub dar rgyas gling/ hor dgon,,Tianzhu,G1052,dpa' ris rdzong,G175,,hor dgon,,Horshuk,毛藏寺,,maozang si,1250,Sakya,2.611034231,2.611,1652,geluk,,,,,,,,,,,,,,
0101000020E6100000EB51B81E85DB58403C0AD7A370DD4040,954,2663,,多日瓦寺,duo riwa si,建设乡,Jianshe xiang,Jian She Xiang,632624,达日县,Dari Xian,6326,Golog Zizhizhou,Qinghai,Qinghai_Lex_20120621,33.73,99.43,632624205,485,rdo ru ba dgon pa,632624205,494,rdo ru ba dgon pa,,na,G1752,dar lag rdzong,G1791,,,,,多日瓦寺,多贡寺,duo riwa si,1940,g,7.08081571,7.081,,,,,,,,,,,,,,,,
0101000020E610000066666666662659400AD7A3703D8A4040,1997,2631,,恩达寺,enda si,多贡麻乡,Duogongma xiang,Duo Gong Ma Xiang,632622,班玛县,Banma Xian,6326,Golog Zizhizhou,Qinghai,Qinghai_Lex_20120621,33.08,100.6,632622204,329,we mda' dgon pa,632622204,515,we mda' dgon pa,we mda' dgon pa,na,G1719,pad+ma rdzong,G1793,,,,,恩达寺,强洛寺,enda si,1830,n,5.885295589,5.885,,,,,,,,,,,,,,,,
0101000020E610000052B81E85EB11594048E17A14AE674040,1992,2626,,吉隆寺,jilong si,吉卡乡,Jika xiang,Ji Ka Xiang,632622,班玛县,Banma Xian,6326,Golog Zizhizhou,Qinghai,Qinghai_Lex_20120621,32.81,100.28,632622201,414,kyi lung dgon pa,632622201,518,kyi lung dgon pa,,na,G2310,rong brag rdzong,G1795,at pad+ma rdzong?,skyid lung dgon,,,吉隆寺,,jilong si,1910,n,2.192621828,2.193,,,,,,,,,,,,,,,,
0101000020E6100000A4703D0AD70359400000000000804040,1990,2624,,卡昂寺,ka'ang si,达卡乡,Daka xiang,Da Ka Xiang,632622,班玛县,Banma Xian,6326,Golog Zizhizhou,Qinghai,Qinghai_Lex_20120621,33,100.06,632622200,341,mkhar nang dgon pa,632622200,520,mkhar nang dgon pa,mkhar nang dgon pa,na,G1719,pad+ma rdzong,G1796,,,,,卡昂寺,,ka'ang si,1840,n,1.88586731,1.886,,,,,,,,,,,,,,,,
0101000020E6100000B69C4B7155B55840390664AF77373F40,2529,558,,,da ke si,建设镇,Jianshe zhen,Jian She Zhen,513331,白玉县,Baiyu Xian,5133,Garze Zizhizhou,Sichuan,Kangon_Lex_20120621,31.21667,98.83334,513331100,333,mda' kho dgon,513331100,333,mda' kho dgon/,,Baiyu,G2300,dpal yul rdzong,G18,,,,na,打科寺,,da ke si,1610,rnying ma/,13.12422075,13.124,,,,,,,,,,,,,,,,
0101000020E6100000CDCCCCCCCC4C5840D49FFD4811113F40,1184,977,,贡普寺,Gongpu si,卡若镇,Karuo zhen,Ka Ruo Zhen,542121,昌都县,Changdu Xian,5421,Qamdo Diqu,Xizang,Kham_Lex_20120621,31.06667,97.2,542121101,28,,542121101,1,na,,Chamdo,G2185,chab mdo rdzong,G180,,chab mdo byams pa gling,,na,强巴林寺,昌都寺/厘寺,Xiangbalin si,na,Geluk,28.66013852,28.66,na,na,na,na,na,,,,,,,,,,,
0101000020E61000003D0AD7A3702D59409A99999999794040,1495,2633,,浪本寺,langben si,莫巴乡,Moba xiang,Mo Ba Xiang,632622,班玛县,Banma Xian,6326,Golog Zizhizhou,Qinghai,Qinghai_Lex_20120621,32.95,100.71,632622205,495,glang 'bud dgon pa,632622205,512,glang 'bud dgon pa,,na,G1719,pad+ma rdzong,G1801,,,,,浪本寺,,langben si,1943,j,8.852691218,8.853,,,,,,,,,,,,,,,,
0101000020E61000003233333333335940E17A14AE47614040,2002,2638,,吾扎寺,wuzha si,亚尔堂乡,Yaertang xiang,Ya Er Tang Xiang,632622,班玛县,Banma Xian,6326,Golog Zizhizhou,Qinghai,Qinghai_Lex_20120621,32.76,100.8,632622207,385,bu rtsa dgon pa,632622207,506,bu rtsa dgon pa,bu rtsa dgon pa,na,G1719,pad+ma rdzong,G1802,,,,,吾扎寺,,wuzha si,1887,n,11.56136193,11.561,,,,,,,,,,,,,,,,
0101000020E6100000B81E85EB513859409A99999999594040,1798,2642,,吉德寺,jide si,班前乡,Banqian xiang,Ban Qian Xiang,632622,班玛县,Banma Xian,6326,Golog Zizhizhou,Qinghai,Qinghai_Lex_20120621,32.7,100.88,632622208,96,rgyud sde dgon pa,632622208,503,rgyud sde dgon pa,,na,G1719,pad+ma rdzong,G1804,,,,,吉德寺,,jide si,1520,Karma Kagyu,9.555053031,9.555,,,,,,,,,,,,,,,,
0101000020E6100000B81E85EB513859409A99999999594040,2006,2643,,班前寺,banqian si,班前乡,Banqian xiang,Ban Qian Xiang,632622,班玛县,Banma Xian,6326,Golog Zizhizhou,Qinghai,Qinghai_Lex_20120621,32.7,100.88,632622208,212,pan chen dgon pa,632622208,504,pan chen dgon pa,,na,G1719,pad+ma rdzong,G1805,,,,,班前寺,,banqian si,1701,n,9.555053031,9.555,,,,,,,,,,,,,,,,
0101000020E6100000EC51B81E853B5940D7A3703D0A574040,2008,2645,,灯塔寺,dengta si,灯塔乡,Dengta xiang,Deng Ta Xiang,632622,班玛县,Banma Xian,6326,Golog Zizhizhou,Qinghai,Qinghai_Lex_20120621,32.68,100.93,632622209,466,dhi mda' dgon bde chen chos gling,632622209,501,dhi mda' dgon bde chen chos gling,dhi mda' dgon bde chen chos gling,na,G1719,pad+ma rdzong,G1807,,,,,灯塔寺,,dengta si,1930,n,3.387648633,3.388,,,,,,,,,,,,,,,,
0101000020E6100000B81E85EB513859409A99999999594040,2007,2644,,然亚寺,ranya si,班前乡,Banqian xiang,Ban Qian Xiang,632622,班玛县,Banma Xian,6326,Golog Zizhizhou,Qinghai,Qinghai_Lex_20120621,32.7,100.88,632622208,157,ra ya dgon pa,632622208,505,ra ya dgon pa,,na,G1719,pad+ma rdzong,G1808,,,,,然亚寺,,ranya si,1650,n,9.555053031,9.555,,,,,,,,,,,,,,,,
0101000020E61000009A99999999295940E17A14AE47A14040,956,2675,,龙格寺,longge si,白玉乡,Baiyu xiang,Bai Yu Xiang,632625,久治县,Jiuzhi Xian,6326,Golog Zizhizhou,Qinghai,Qinghai_Lex_20120621,33.26,100.65,632625204,301,lung dkar dgon pa,632625204,525,lung dkar dgon pa,,na,G1700,gcig sgril rdzong,G1811,,lung dkar dgon dga' ldan chos 'phel gling,,,龙格寺,隆格寺,longge si,1785,g,2.517898059,2.518,,,,,,,,,,,,,,,,
0101000020E61000002F34D769A4CF56401A868F8829993E40,1000,901,,,Kangmar,龙仁乡,Longren xiang,Long Ren Xiang,540122,当雄县,Dangxiong Xian,5401,Lhasa Shi,Xizang,U_gonpa_Lex_20120622,30.59829,91.24441,540122203,540122105,khang dmar dgon,540122203,540122105,khang dmar dgon,,Damzhung,G1818,dam gzhung rdzong,G1820,,,,Kangmar,康玛寺,当雄县康玛寺,na,1700,Gelug,1.768315326,1.768,x,x,x,x,,,,,,,,,,,,
0101000020E61000003D0AD7A3705D59406666666666064240,2825,2521,,珍珠寺,zhenzhu si,河阴镇,Heyin zhen,He Yin Zhen,632523,贵德县,Guide Xian,6325,Hainan Zizhizhou,Qinghai,Qinghai_Lex_20120621,36.05,101.46,632523100,19,jo jo lha khang,632523100,313,jo jo lha khang,,na,G1715,khri ka rdzong,G1829,,,,Jojo Lhakang,珍珠寺,,zhenzhu si,1269,Sakya,80.80808081,80.808,1600,g,,,,,,,,,,,,,,
0101000020E61000000B293FA9F661594099F04BFDBC0D4240,897,2530,,长佛寺,changfo si,河东乡,Hedong xiang,He Dong Xiang,632523,贵德县,Guide Xian,6325,Hainan Zizhizhou,Qinghai,Qinghai_Lex_20120621,36.10733,101.53068,632523200,364,lha dkar po,632523200,314,lha dkar po,,na,G1715,khri ka rdzong,G1832,,lha dkar po'i lha khang,,,长佛寺,,changfo si,1865,g,20.35712208,20.357,,,,,,,,,,,,,,,,
0101000020E6100000B81E85EB515859400E15E3FC4DF84140,900,2538,,木干寺,mugan si,河西乡,Hexi xiang,He Xi Xiang,632523,贵德县,Guide Xian,6325,Hainan Zizhizhou,Qinghai,Qinghai_Lex_20120621,35.93988,101.38,632523201,602,mergan grwa tshang,632523201,318,mergan grwa tshang,,na,G1715,khri ka rdzong,G1834,？,mer rgan dgon bkra shis chos 'phel rgyal gling,,,木干寺,墨尔根扎仓,mugan si,na,g,59.243461,59.243,,,,,,,,,,,,,,,,
0101000020E610000015C1FF56B259594067B3EA73B5014240,902,2544,,毕家寺,bijia si,河西乡,Hexi xiang,He Xi Xiang,632523,贵德县,Guide Xian,6325,Hainan Zizhizhou,Qinghai,Qinghai_Lex_20120621,36.01335,101.40151,632523201,163,bis kya'i grwa tshang ngam sgom sde'i skye ba,632523201,322,bA kya'i grwa tshang tshogs dar rgyas gling,,na,G1715,khri ka rdzong,G1835,,ba kyA grwa tshang phun tshogs dar rgyas gling,,,瓦家寺,,wajia si,1718,g,59.243461,59.243,,,,,,xx,,,,,,,,,,
0101000020E610000057B2632310555940D07EA4880CF74140,899,2535,,环仓寺,huancang si,河西乡,Hexi xiang,He Xi Xiang,632523,贵德县,Guide Xian,6325,Hainan Zizhizhou,Qinghai,Qinghai_Lex_20120621,35.93007,101.32911,632523201,614,dpon tshang zi,632523201,309,cog rong grwa tshang,,na,G1715,khri ka rdzong,G1836,,,,,石家寺,,shijia si,1865,g,59.243461,59.243,,,,,,xx,,,,,,,,,,
0101000020E6100000DC68006F815E59406666666666064240,895,2527,,贡巴寺,gongba si,河东乡,Hedong xiang,He Dong Xiang,632523,贵德县,Guide Xian,6325,Hainan Zizhizhou,Qinghai,Qinghai_Lex_20120621,36.05,101.47665,632523200,79,gong ba grwa tshang thos bsam dar rgyas gling,632523200,310,gong ba grwa tshang thos bsam dar rgyas gling,,na,G1715,khri ka rdzong,G1837,,,,,贡巴寺,工巴寺/国巴寺,gongba si,1446,g,20.35712208,20.357,,,,,,,,,,,,,,,,
0101000020E6100000B81E85EB5158594058AD4CF8A5FE4140,1966,2543,,加毛寺,jiamao si,河西乡,Hexi xiang,He Xi Xiang,632523,贵德县,Guide Xian,6325,Hainan Zizhizhou,Qinghai,Qinghai_Lex_20120621,35.98944,101.38,632523201,215,ja' mo grwa tshang bde legs chos gling,632523201,324,hor kya'i sngags khang,,na,G1715,khri ka rdzong,G1842,,,,,贷尔加俄康,贷尔加本本子寺,huo'erjia ekang,na,n,59.243461,59.243,,,,,,xx,,,,,,,,,,
0101000020E6100000B81E85EB51585940E7C6F48425064240,905,2551,,货尔加俄康,huo'erjia ekang,河西乡,Hexi xiang,He Xi Xiang,632523,贵德县,Guide Xian,6325,Hainan Zizhizhou,Qinghai,Qinghai_Lex_20120621,36.04802,101.38,632523201,603,hor kya'i sngags khang,632523201,320,hor kya'i grwa bsam gtan gling,,na,G1715,khri ka rdzong,G1843,,hor kyA grwa tshang bsam gtan dga' ldan gling,,,贷尔加寺,贷尔加扎仓静虑洲,huo'erjia si,1724,g,59.243461,59.243,,,,,,xx,,,,,,,,,,
0101000020E6100000B81E85EB5158594043E7357689F24140,898,2532,,瓦家寺,wajia si,河西乡,Hexi xiang,He Xi Xiang,632523,贵德县,Guide Xian,6325,Hainan Zizhizhou,Qinghai,Qinghai_Lex_20120621,35.89482,101.38,632523201,218,bA kya'i grwa tshang tshogs dar rgyas gling,632523201,319,ja' mo grwa tshang bde legs chos gling,,na,G1715,khri ka rdzong,G1844,,,,,加毛寺,家毛寺/家莫寺,jiamao si,1710,g,59.243461,59.243,,,,,,xx,,,,,,,,,,
0101000020E61000000000000000605940FE60E0B9F7F84140,73,2566,,色尔加寺,se'erjia si,东沟乡,Donggou xiang,Dong Gou Xiang,632523,贵德县,Guide Xian,6325,Hainan Zizhizhou,Qinghai,Qinghai_Lex_20120621,35.94506,101.5,632523202,314,se kya'i bon dgon,632523202,646,se kya'i bon dgon,,na,G1715,khri ka rdzong,G1845,,se kyA bon sngags bdud 'dul me ri 'khyil gling,,,色尔加寺,色尔加本教寺,se'erjia si,1807,b,39.15877732,39.159,,,,,,,,,,,,,,,,
0101000020E61000002BC1E270E6615940983446EBA8FA4140,916,2567,,色尔加寺,se'erjia si,东沟乡,Donggou xiang,Dong Gou Xiang,632523,贵德县,Guide Xian,6325,Hainan Zizhizhou,Qinghai,Qinghai_Lex_20120621,35.95828,101.52969,632523202,310,se kya'i grwa tshang,632523202,328,se kya'i grwa tshang,,na,G1715,khri ka rdzong,G1846,,,,,色尔加寺,,se'erjia si,1800,g,12.72709918,39.159,,,,,,,,,,,,,,,,
0101000020E61000000000000000605940FE60E0B9F7F84140,1971,2565,,色尔加俄康,se'erjia ekang,东沟乡,Donggou xiang,Dong Gou Xiang,632523,贵德县,Guide Xian,6325,Hainan Zizhizhou,Qinghai,Qinghai_Lex_20120621,35.94506,101.5,632523202,606,se kya'i sngags khang,632523202,337,se kya'i sngags khang,,na,G1715,khri ka rdzong,G1847,,se kyA sngags khang gsang sngags dar rgyas gling,,,色尔加俄康,,se'erjia ekang,na,n,39.15877732,39.159,,,,,,,,,,,,,,,,
0101000020E6100000D44334BA8364594066BD18CA89FA4140,917,2568,,浪查寺,langcha si,东沟乡,Donggou xiang,Dong Gou Xiang,632523,贵德县,Guide Xian,6325,Hainan Zizhizhou,Qinghai,Qinghai_Lex_20120621,35.95733,101.57054,632523202,605,gling tsha'i ri khrod bsam gtan gling,632523202,329,gling tsha'i ri khrod bsam gtan gling,,na,G1715,khri ka rdzong,G1848,,glang tsha dgon bsam gtan gling,,,浪查寺,,langcha si,na,g,39.15877732,39.159,,,,,,,,,,,,,,,,
0101000020E61000000000000000605940F0DC7BB8E4F04140,910,2557,,火烧坡寺,huoshaopo si,东沟乡,Donggou xiang,Dong Gou Xiang,632523,贵德县,Guide Xian,6325,Hainan Zizhizhou,Qinghai,Qinghai_Lex_20120621,35.88198,101.5,632523202,551,bA jo'i ri khrod,632523202,327,a dar chos 'phel gling ngam rong gzhis grwa tshang,,na,G1715,khri ka rdzong,G1850,,rong zhis dgon a dar chos 'phel gling,,,荣一寺,,rongyi si,1865,g,39.15877732,39.159,,,,,,xx,,,,,,,,,,
0101000020E6100000ACFF73982F5F59401FBAA0BE65F64140,1969,2561,,上兰角俄康,shanglanjue ekang,东沟乡,Donggou xiang,Dong Gou Xiang,632523,贵德县,Guide Xian,6325,Hainan Zizhizhou,Qinghai,Qinghai_Lex_20120621,35.92498,101.48728,632523202,22,lan ju gong ma'i sngags khang,632523202,339,lan ju gong ma'i sngags khang,,na,G1715,khri ka rdzong,G1851,,lan 'gro gong ma'i sngags khang,,Lanju Ngakang,上篮角俄康,,shanglanjue ekang,1290,n,39.15877732,39.159,,,,,,,,,,,,,,,,
0101000020E610000000000000006059403333333333F34140,912,2559,,周屯寺,zhoutun si,东沟乡,Donggou xiang,Dong Gou Xiang,632523,贵德县,Guide Xian,6325,Hainan Zizhizhou,Qinghai,Qinghai_Lex_20120621,35.9,101.5,632523202,208,khre tse gong ma'i dgon bstan rgyas bsam 'phel gling,632523202,330,khre tse gong ma'i dgon bstan rgyas bsam 'phel gling,,na,G1715,khri ka rdzong,G1853,,,,,周屯寺,,zhoutun si,1700,g,39.15877732,39.159,,,,,,,,,,,,,,,,
0101000020E6100000E3AAB2EF8A605940F775E09C11F14140,911,2558,,加卜查寺,jiapucha si,东沟乡,Donggou xiang,Dong Gou Xiang,632523,贵德县,Guide Xian,6325,Hainan Zizhizhou,Qinghai,Qinghai_Lex_20120621,35.88335,101.50848,632523202,296,rgyab tsha grwa tshang,632523202,331,rgyab tsha grwa tshang,,na,G1715,khri ka rdzong,G1854,,rgyab tsha dgon bstan rgyas gling,,,加卜查寺,,jiapucha si,1780,g,39.15877732,39.159,,,,,,,,,,,,,,,,
0101000020E6100000EF552B137E5D5940AB39403047F74140,914,2562,,荣一寺,rongyi si,东沟乡,Donggou xiang,Dong Gou Xiang,632523,贵德县,Guide Xian,6325,Hainan Zizhizhou,Qinghai,Qinghai_Lex_20120621,35.93186,101.46082,632523202,365,a dar chos 'phel gling ngam rong gzhis grwa tshang,632523202,333,gag bza'i grwa tshang,,na,G1715,khri ka rdzong,G1855,,gag bza' grwa tshang bkra shis dar rgyas gling,,,苟后扎寺,,gouhouzha si,1750,g,39.15877732,39.159,,,,,,xx,,,,,,,,,,
0101000020E6100000AF7C96E7C163594037FDD98F14ED4140,908,2555,,尼尔寺,ni'er si,东沟乡,Donggou xiang,Dong Gou Xiang,632523,贵德县,Guide Xian,6325,Hainan Zizhizhou,Qinghai,Qinghai_Lex_20120621,35.85219,101.55871,632523202,268,rnye sgrub sde lhun grub chos rdzong,632523202,341,rnye sgrub sde lhun grub chos rdzong,,na,G1715,khri ka rdzong,G1858,,rnye dgon lhun grub chos rdzong,,,尼尔寺,,ni'er si,1775,g,39.15877732,39.159,,,,,,,,,,,,,,,,
0101000020E6100000C8073D9B555559407F48BF7D1DF84140,70,2537,,当车寺,dangche si,河西乡,Hexi xiang,He Xi Xiang,632523,贵德县,Guide Xian,6325,Hainan Zizhizhou,Qinghai,Qinghai_Lex_20120621,35.9384,101.33335,632523201,262,stong che'i bon dgon,632523201,645,stong che'i bon dgon,,na,G1715,khri ka rdzong,G1859,,,,,当车寺,,dangche si,1766,b,59.243461,59.243,,,,,,,,,,,,,,,,
0101000020E6100000B69C4B7155B555402D6002B7EE2E3C40,2300,1546,,,Rongbu,,Zhaxizong xiang,,542324,定日县,Dingri Xian,5423,Xigazi Diqu,Xizang,Tsanggonpa_Lex_20120622,28.18333,86.83334,542324201,542324105,rong bu,542324201,542324105,rong bu,,Dingri,G2165,ding ri rdzong,G186,,rdza rong phu dgon,,Rongbu,绒布寺,,na,1800,Nyingma,0.713551775,0.714,x,x,x,x,approximate date from Dorje,,,,,,,,,,,
0101000020E610000015C1FF56B259594067B3EA73B5014240,903,2545,,石家寺,shijia si,河西乡,Hexi xiang,He Xi Xiang,632523,贵德县,Guide Xian,6325,Hainan Zizhizhou,Qinghai,Qinghai_Lex_20120621,36.01335,101.40151,632523201,362,cog rong grwa tshang,632523201,308,bis kya'i grwa tshang ngam sgom sde'i skye ba,,na,G1715,khri ka rdzong,G1860,,,,,毕家寺,,bijia si,1651,g,59.243461,59.243,,,,,,xx,,,,,,,,,,
0101000020E6100000340C1F11536C59401D9430D3F6E34140,853,2456,,官赛寺,guansai si,尖扎滩乡,Jianzhatan xiang,Jian Zha Tan Xiang,632322,尖扎县,Jianzha Xian,6323,Huangnan Zizhizhou,Qinghai,Qinghai_Lex_20120621,35.78097,101.69257,632322209,335,a yag dgon gsar bkra shis rab brtan gling,632322209,335,a yag dgon gsar bkra shis rab brtan gling,,na,G1715,khri ka rdzong,G1864,at gcan tsha rdzong?,a yag dgon gsar,,,官赛寺,贡赛寺/官色寺,guansai si,1836,g,4.911711977,4.912,,,,,,,,,,,,,,,,
0101000020E6100000B48993FB1D645940410E4A9869EB4140,1968,2554,,叶什姜寺,yeshi jiang si,东沟乡,Donggou xiang,Dong Gou Xiang,632523,贵德县,Guide Xian,6325,Hainan Zizhizhou,Qinghai,Qinghai_Lex_20120621,35.83916,101.56433,632523202,206,g.yer gshong dgon bsam gtan chos 'phel gling,632523202,340,dme kya'i sngags khang,,na,G1715,khri ka rdzong,G1866,,dme kyA sngags khang o rgyan smin grol gling,,,梅加俄康,,meijia ekang,na,n,39.15877732,39.159,,,,,,xx,,,,,,,,,,
0101000020E6100000DDEA39E97D5B59404E7ADFF8DAEB4140,906,2552,,卷木寺,juanmu si,东沟乡,Donggou xiang,Dong Gou Xiang,632523,贵德县,Guide Xian,6325,Hainan Zizhizhou,Qinghai,Qinghai_Lex_20120621,35.84262,101.42956,632523202,345,sgrom grwa tshang bkra shis chos gling,632523202,334,sgrom grwa tshang bkra shis chos gling,,na,G1715,khri ka rdzong,G1867,,sgrom grwa tshang thos bsam dar rgyas gling,,,卷木寺,,juanmu si,1850,g,39.15877732,39.159,,,,,,,,,,,,,,,,
0101000020E61000009886E123626259408F8D40BCAE174240,1973,2572,,阿言麦俄康,ayanmai ekang,尕让乡,Garang xiang,Ga Rang Xiang,632523,贵德县,Guide Xian,6325,Hainan Zizhizhou,Qinghai,Qinghai_Lex_20120621,36.18502,101.53724,632523204,336,dkar brjid dam ka zhar sngags khang rnam grol pad ma'i gling,632523204,346,dkar brjid dam ka zhar sngags khang rnam grol pad ma'i gling,,na,G1715,khri ka rdzong,G1871,,dkar brjid sngags khang rnam grol pad+ma gling,,,阿言麦俄康,阿言本本子寺/尕让本本子寺,ayanmai ekang,1836,n,8.599931201,8.6,,,,,,,,,,,,,,,,
0101000020E6100000C763062AE34D594011F758FAD0094240,1977,2577,,昨纳俄康,zuona ekang,罗汉堂乡,Luohantang xiang,Luo Han Tang Xiang,632523,贵德县,Guide Xian,6325,Hainan Zizhizhou,Qinghai,Qinghai_Lex_20120621,36.07669,101.21699,632523205,440,mdzo sna'i sngags khang,632523205,356,mdzo sna'i sngags khang,,na,G1715,khri ka rdzong,G1872,,mdzo sna sngags khang,,,昨那俄康,,zuona ekang,1923,n,12.78499893,12.785,,,,,,,,,,,,,,,,
0101000020E6100000B81E85EB51585940853DEDF0D7F44140,75,2533,,却毛寺,quemao si,河西乡,Hexi xiang,He Xi Xiang,632523,贵德县,Guide Xian,6325,Hainan Zizhizhou,Qinghai,Qinghai_Lex_20120621,35.91284,101.38,632523201,307,khyung mo'i dgon g.yung drung phun tshogs gling ngam bon sgar bkra shis chos gling,632523201,360,khyung mo'i dgon g.yung drung phun tshogs gling ngam bon sgar bkra shis chos gling,,na,G1715,khri ka rdzong,G1874,,,,,却毛寺,,quemao si,1790,b/g,59.243461,59.243,,,,,,,,,,,,,,,,
0101000020E6100000A69BC420B0625940D00A0C59DD024240,1961,2526,,格哇俄康,gewa ekang,河东乡,Hedong xiang,He Dong Xiang,632523,贵德县,Guide Xian,6325,Hainan Zizhizhou,Qinghai,Qinghai_Lex_20120621,36.02238,101.542,632523200,288,sked ba sngags khang,632523200,315,sked ba sngags khang,,na,G1715,khri ka rdzong,G1876,,ske ba sngags khang phun tshogs bsam gtan gling,,,格哇俄康,,gewa ekang,1777,n,20.35712208,20.357,,,,,,,,,,,,,,,,
